time_elapsed,pitch,roll,yaw,vgx,vgy,vgz,templ,temph,tof,h,bat,baro,time,agx,agy,agz
0.000,0,0,163,0,0,0,72,75,10,0,51,-60.09,18,4.0,7.0,-1000.0
0.058,0,0,163,0,0,0,72,75,10,0,51,-60.09,18,4.0,7.0,-1000.0
0.117,0,0,163,0,0,0,72,75,10,0,51,-60.16,18,3.0,6.0,-1002.0
0.176,0,0,163,0,0,0,72,75,10,0,51,-60.16,18,3.0,6.0,-1002.0
0.234,0,0,163,0,0,0,72,75,10,0,51,-60.16,18,3.0,6.0,-1002.0
0.292,0,0,163,0,0,0,72,75,10,0,51,-60.14,18,1.0,10.0,-996.0
0.342,0,0,163,0,0,0,72,75,10,0,51,-60.14,18,1.0,10.0,-996.0
0.393,0,0,163,0,0,0,72,75,10,0,51,-60.14,18,1.0,10.0,-996.0
0.450,0,0,163,0,0,0,72,75,10,0,51,-60.14,18,1.0,10.0,-996.0
0.501,0,0,163,0,0,0,72,75,10,0,51,-60.14,19,1.0,15.0,-999.0
0.559,0,0,163,0,0,0,72,75,10,0,51,-60.14,19,1.0,15.0,-999.0
0.618,0,0,163,0,0,0,72,75,10,0,51,-60.14,19,1.0,15.0,-999.0
0.675,0,0,163,0,0,0,72,75,10,0,51,-60.14,19,1.0,15.0,-999.0
0.735,0,0,163,0,0,0,72,75,10,0,51,-60.14,19,1.0,15.0,-999.0
0.793,0,0,164,0,0,0,73,75,10,0,51,-60.14,19,28.0,-10.0,-1232.0
0.852,0,0,164,0,0,0,73,75,10,0,51,-60.14,19,28.0,-10.0,-1232.0
0.903,0,0,164,0,0,0,73,75,10,0,51,-60.14,19,28.0,-10.0,-1232.0
0.953,0,0,164,0,0,0,73,75,10,0,51,-60.14,19,28.0,-10.0,-1232.0
1.011,1,0,165,0,0,-4,73,75,12,0,51,-60.14,19,-3.0,27.0,-1163.0
1.069,1,0,165,0,0,-6,73,75,21,0,51,-59.76,19,26.0,23.0,-1088.0
1.127,1,0,165,0,0,-6,73,75,21,0,51,-59.76,19,26.0,23.0,-1088.0
1.185,1,-1,165,0,0,-7,73,75,29,0,51,-59.62,19,20.0,12.0,-1052.0
1.244,1,-1,165,0,0,-7,73,75,36,10,51,-59.6,19,26.0,25.0,-963.0
1.295,1,-1,165,0,0,-7,73,75,36,10,51,-59.6,19,26.0,25.0,-963.0
1.353,1,-1,165,0,0,-7,73,75,36,10,51,-59.6,19,26.0,25.0,-963.0
1.412,1,-1,165,0,0,-7,73,75,45,10,51,-59.44,19,34.0,13.0,-921.0
1.469,1,-1,165,0,0,-6,73,75,52,20,51,-59.37,20,31.0,14.0,-891.0
1.519,1,-1,165,0,0,-6,73,75,52,20,51,-59.37,20,31.0,14.0,-891.0
1.577,1,-1,165,0,0,-6,73,75,52,20,51,-59.37,20,31.0,14.0,-891.0
1.628,1,-1,165,0,0,-4,73,76,59,20,51,-59.33,20,20.0,15.0,-934.0
1.687,2,-1,165,0,0,-3,73,76,67,30,51,-59.18,20,40.0,14.0,-903.0
1.745,2,-1,165,0,0,-3,73,76,67,30,51,-59.18,20,40.0,14.0,-903.0
1.803,2,-1,165,0,0,-2,73,76,72,30,51,-59.16,20,34.0,3.0,-887.0
1.862,2,0,165,0,0,-1,73,76,77,30,51,-59.16,20,41.0,-14.0,-907.0
1.912,2,0,165,0,0,-1,73,76,77,30,51,-59.16,20,41.0,-14.0,-907.0
1.969,2,0,165,0,0,-1,73,76,77,30,51,-59.16,20,41.0,-14.0,-907.0
2.019,2,0,165,0,0,-1,73,76,81,40,51,-59.06,20,28.0,3.0,-916.0
2.077,2,0,165,0,0,0,73,76,85,40,51,-59.02,20,64.0,-5.0,-942.0
2.136,2,0,165,0,0,0,73,76,85,40,51,-59.02,20,64.0,-5.0,-942.0
2.194,3,0,165,0,0,0,73,76,87,40,51,-59.13,20,58.0,-12.0,-962.0
2.251,3,0,165,0,0,0,73,76,87,40,51,-59.13,20,58.0,-12.0,-962.0
2.309,3,0,164,0,0,0,73,76,89,40,51,-59.08,20,55.0,4.0,-958.0
2.367,3,0,164,0,0,0,73,76,89,40,51,-59.08,20,55.0,4.0,-958.0
2.426,2,0,165,0,0,0,73,76,91,40,51,-59.01,21,56.0,-10.0,-975.0
2.493,2,0,165,0,0,0,73,76,93,50,51,-59.0,21,48.0,2.0,-987.0
2.543,2,0,165,0,0,0,73,76,93,50,51,-59.0,21,48.0,2.0,-987.0
2.602,2,0,165,0,0,0,73,76,93,50,51,-59.0,21,48.0,2.0,-987.0
2.668,2,0,165,0,0,0,72,75,95,50,51,-59.03,21,43.0,-6.0,-995.0
2.726,2,0,165,0,0,0,72,75,95,50,51,-59.03,21,43.0,-6.0,-995.0
2.784,2,0,165,0,0,0,72,75,95,50,51,-59.03,21,43.0,-6.0,-995.0
2.835,2,0,164,0,0,0,72,75,96,50,51,-58.95,21,28.0,-8.0,-974.0
2.894,2,0,164,0,0,0,72,75,96,50,51,-58.98,21,60.0,-9.0,-1011.0
2.952,2,0,164,0,0,0,72,75,96,50,51,-58.98,21,60.0,-9.0,-1011.0
3.002,2,0,164,0,0,0,72,75,96,50,51,-58.98,21,60.0,-9.0,-1011.0
3.061,2,0,164,0,0,0,72,75,97,50,51,-59.0,21,38.0,0.0,-1002.0
3.119,2,0,164,0,0,1,72,75,96,50,51,-59.09,21,38.0,4.0,-970.0
3.178,2,0,164,0,0,1,72,75,96,50,51,-59.09,21,38.0,4.0,-970.0
3.236,2,0,164,0,0,1,72,75,97,50,51,-59.0,21,15.0,9.0,-977.0
3.294,2,0,164,0,0,1,72,75,97,50,51,-59.0,21,15.0,9.0,-977.0
3.351,2,0,164,0,0,1,72,75,95,50,51,-59.06,21,30.0,-1.0,-979.0
3.409,1,0,164,0,0,1,72,75,95,50,51,-59.0,22,29.0,3.0,-992.0
3.466,1,0,164,0,0,1,72,75,95,50,51,-59.0,22,29.0,3.0,-992.0
3.517,1,0,164,0,0,1,72,75,95,50,51,-59.0,22,29.0,3.0,-992.0
3.575,1,0,164,0,0,1,72,75,94,50,51,-59.06,22,29.0,9.0,-989.0
3.625,1,0,164,0,0,1,73,75,92,50,51,-59.06,22,53.0,-13.0,-969.0
3.684,1,0,164,0,0,1,73,75,92,50,51,-59.06,22,53.0,-13.0,-969.0
3.742,1,0,164,0,0,1,73,75,92,50,51,-59.06,22,53.0,-13.0,-969.0
3.793,1,0,165,0,0,1,73,75,90,50,51,-59.03,22,46.0,17.0,-982.0
3.843,1,0,165,0,0,1,73,75,90,50,51,-59.03,22,46.0,17.0,-982.0
3.894,2,-1,165,0,0,1,73,75,87,50,51,-59.04,22,59.0,12.0,-1035.0
3.944,2,-1,165,0,0,1,73,75,87,50,51,-59.04,22,59.0,12.0,-1035.0
4.009,2,-1,165,0,0,1,73,75,87,50,51,-59.04,22,59.0,12.0,-1035.0
4.068,2,-1,165,0,0,1,73,75,85,50,51,-59.11,22,56.0,6.0,-1025.0
4.127,2,0,165,0,0,1,73,75,83,40,51,-59.08,22,62.0,10.0,-1021.0
4.185,2,0,165,0,0,1,73,75,83,40,51,-59.08,22,62.0,10.0,-1021.0
4.237,3,0,165,0,0,1,73,75,82,40,51,-59.13,22,54.0,7.0,-1005.0
4.295,3,0,165,0,0,1,73,75,82,40,51,-59.13,22,54.0,7.0,-1005.0
4.354,2,0,165,0,0,1,73,75,79,40,51,-59.07,22,52.0,-12.0,-970.0
4.412,2,0,165,0,0,1,73,75,79,40,51,-59.07,22,52.0,-12.0,-970.0
4.468,2,0,165,0,0,0,73,75,78,40,51,-59.17,23,26.0,20.0,-1046.0
4.526,2,0,165,0,0,0,73,75,76,40,51,-59.21,23,45.0,3.0,-1012.0
4.585,2,0,165,0,0,0,73,75,76,40,51,-59.21,23,45.0,3.0,-1012.0
4.643,2,0,165,0,0,0,73,75,76,40,51,-59.21,23,45.0,3.0,-1012.0
4.701,1,0,165,0,0,0,71,74,75,40,51,-59.19,23,33.0,13.0,-1002.0
4.759,1,0,165,0,0,0,71,74,74,40,51,-59.16,23,41.0,2.0,-1030.0
4.809,1,0,165,0,0,0,71,74,73,40,51,-59.15,23,43.0,17.0,-1008.0
4.867,2,0,165,0,0,0,71,74,72,30,51,-59.18,23,43.0,4.0,-1006.0
4.926,2,0,165,0,0,0,71,74,72,30,51,-59.18,23,43.0,4.0,-1006.0
4.976,1,0,165,0,0,0,71,74,72,30,51,-59.22,23,44.0,-1.0,-1005.0
5.035,1,0,165,0,0,0,71,74,72,30,51,-59.22,23,44.0,-1.0,-1005.0
5.094,1,0,165,0,0,0,71,74,72,30,51,-59.19,23,31.0,5.0,-994.0
5.152,1,0,165,0,0,0,71,74,72,30,51,-59.19,23,31.0,5.0,-994.0
5.211,1,0,165,0,0,0,71,74,72,30,51,-59.15,23,27.0,11.0,-1022.0
5.270,1,0,165,0,0,0,71,74,72,30,51,-59.15,23,27.0,11.0,-1022.0
5.328,1,0,165,0,0,0,71,74,73,30,51,-59.13,23,13.0,20.0,-1001.0
5.386,1,0,164,0,0,0,71,74,74,30,51,-59.22,24,35.0,-1.0,-1015.0
5.445,1,0,164,0,0,0,71,74,74,30,51,-59.22,24,35.0,-1.0,-1015.0
5.504,2,0,164,0,0,0,71,74,75,30,51,-59.15,24,40.0,-8.0,-1021.0
5.554,2,0,164,0,0,0,71,74,75,30,51,-59.15,24,40.0,-8.0,-1021.0
5.612,2,0,164,0,0,0,71,74,75,40,51,-59.14,24,32.0,-7.0,-967.0
5.669,2,0,164,0,0,0,71,74,75,40,51,-59.14,24,32.0,-7.0,-967.0
5.728,2,0,164,0,0,0,71,74,76,40,51,-59.14,24,39.0,-6.0,-998.0
5.787,2,0,164,0,0,0,71,74,76,40,51,-59.07,24,23.0,9.0,-981.0
5.845,2,0,164,0,0,0,71,74,76,40,51,-59.07,24,23.0,9.0,-981.0
5.905,1,0,164,0,0,0,71,74,77,40,51,-59.09,24,25.0,-2.0,-1007.0
5.971,1,0,164,0,0,0,71,74,77,40,51,-59.09,24,25.0,-2.0,-1007.0
6.036,0,0,164,0,0,0,71,74,77,40,51,-59.17,24,30.0,8.0,-998.0
6.095,1,0,164,0,0,0,71,74,77,40,51,-59.07,24,32.0,5.0,-1009.0
6.153,1,0,164,0,0,0,71,74,77,40,51,-59.07,24,32.0,5.0,-1009.0
6.204,1,0,164,0,0,0,71,74,77,40,51,-59.17,24,79.0,-4.0,-992.0
6.262,1,0,164,0,0,0,71,74,77,40,51,-59.17,24,79.0,-4.0,-992.0
6.314,2,0,164,0,0,0,71,74,78,40,51,-59.09,24,41.0,7.0,-991.0
6.371,2,0,164,0,0,0,71,74,78,40,51,-59.09,24,41.0,7.0,-991.0
6.429,2,0,165,0,0,0,71,74,78,40,51,-59.14,25,31.0,17.0,-952.0
6.492,2,0,165,0,0,0,71,74,78,40,51,-59.14,25,31.0,17.0,-952.0
6.553,3,-1,165,0,0,0,71,74,79,40,51,-59.15,25,65.0,2.0,-1001.0
6.611,2,-1,164,0,0,0,72,73,80,40,51,-59.12,25,29.0,14.0,-1011.0
6.662,2,-1,164,0,0,0,72,73,80,40,51,-59.12,25,29.0,14.0,-1011.0
6.712,2,0,164,0,0,0,72,73,81,40,51,-59.14,25,58.0,-4.0,-980.0
6.769,2,0,164,0,0,0,72,73,81,40,51,-59.14,25,58.0,-4.0,-980.0
6.827,2,0,164,0,0,0,72,73,81,40,51,-59.08,25,44.0,8.0,-1000.0
6.885,2,0,164,0,0,0,72,73,81,40,51,-59.08,25,44.0,8.0,-1000.0
6.943,2,0,164,0,0,0,72,73,82,40,51,-59.14,25,55.0,7.0,-946.0
7.009,2,0,164,0,0,0,72,73,83,40,51,-59.05,25,19.0,46.0,-967.0
7.068,2,0,164,0,0,0,72,73,83,40,51,-59.05,25,19.0,46.0,-967.0
7.119,2,0,164,0,0,0,72,73,83,40,51,-59.05,25,19.0,46.0,-967.0
7.169,2,0,164,0,0,0,72,73,84,40,51,-59.06,25,18.0,28.0,-996.0
7.227,3,-1,164,0,0,0,72,73,85,40,51,-59.06,25,24.0,15.0,-974.0
7.278,3,-1,164,0,0,0,72,73,85,40,51,-59.06,25,24.0,15.0,-974.0
7.344,3,-2,164,0,0,0,72,73,86,40,51,-59.01,25,54.0,6.0,-991.0
7.402,3,-2,164,0,0,0,72,73,86,40,51,-59.01,25,54.0,6.0,-991.0
7.461,3,-2,164,0,0,0,72,73,86,40,51,-59.01,25,54.0,6.0,-991.0
7.526,3,-2,164,0,0,0,72,73,86,40,51,-59.01,25,54.0,6.0,-991.0
7.586,3,-2,164,0,0,0,72,73,86,40,51,-59.01,25,54.0,6.0,-991.0
7.644,1,-1,164,0,0,0,72,74,88,50,51,-59.07,26,22.0,11.0,-1017.0
7.702,1,-1,164,0,0,0,72,74,88,50,51,-59.07,26,22.0,11.0,-1017.0
7.753,2,0,164,0,0,0,72,74,89,50,51,-58.99,26,34.0,8.0,-975.0
7.811,2,0,164,0,0,0,72,74,89,50,51,-58.99,26,34.0,8.0,-975.0
7.869,1,0,164,0,0,0,72,74,89,50,51,-59.02,26,24.0,28.0,-935.0
7.926,1,0,164,0,0,0,72,74,89,50,51,-59.07,26,22.0,23.0,-976.0
7.993,1,0,164,0,0,0,72,74,89,50,51,-59.07,26,22.0,23.0,-976.0
8.057,1,0,164,0,0,0,72,74,88,50,51,-58.96,26,44.0,-6.0,-985.0
8.116,1,0,164,0,0,0,72,74,88,50,51,-58.96,26,44.0,-6.0,-985.0
8.174,1,-1,164,0,0,0,72,74,88,50,51,-58.95,26,22.0,24.0,-991.0
8.233,1,-1,164,0,0,0,72,74,88,50,51,-58.95,26,22.0,24.0,-991.0
8.290,1,-1,164,0,0,0,72,74,87,50,51,-59.05,26,5.0,34.0,-986.0
8.340,1,0,164,0,0,0,72,74,87,50,51,-58.92,26,33.0,33.0,-948.0
8.391,1,0,164,0,0,0,72,74,87,50,51,-58.92,26,33.0,33.0,-948.0
8.449,1,0,164,0,0,0,72,74,87,50,51,-58.92,26,33.0,33.0,-948.0
8.500,1,0,165,0,0,0,72,74,86,50,51,-59.02,27,26.0,27.0,-1017.0
8.557,1,-1,165,0,0,0,72,74,85,50,51,-58.96,27,34.0,27.0,-1027.0
8.608,1,-1,165,0,0,0,72,74,85,50,51,-58.96,27,34.0,27.0,-1027.0
8.667,1,-1,165,0,0,0,72,74,85,50,51,-58.96,27,34.0,27.0,-1027.0
8.725,1,-1,165,0,0,0,72,74,85,50,51,-58.96,27,34.0,27.0,-1027.0
8.784,3,-3,165,0,0,0,71,74,85,40,51,-59.09,27,36.0,19.0,-1038.0
8.842,2,-3,165,0,0,0,71,74,84,40,51,-59.14,27,46.0,11.0,-1003.0
8.893,2,-2,165,0,0,0,71,74,84,40,51,-59.08,27,27.0,30.0,-990.0
8.951,2,-2,165,0,0,0,71,74,84,40,51,-59.08,27,27.0,30.0,-990.0
9.009,2,-1,165,0,0,0,71,74,84,40,51,-59.1,27,20.0,28.0,-1020.0
9.074,2,-1,165,0,0,0,71,74,84,40,51,-59.1,27,20.0,28.0,-1020.0
9.132,2,-1,165,0,0,0,71,74,84,40,51,-59.2,27,34.0,25.0,-981.0
9.191,2,-1,165,0,0,0,71,74,84,40,51,-59.2,27,34.0,25.0,-981.0
9.242,1,-1,165,0,0,0,71,74,84,40,51,-59.08,27,5.0,42.0,-958.0
9.300,2,-1,165,0,0,0,71,74,84,40,51,-59.1,27,28.0,23.0,-1007.0
9.358,2,-1,165,0,0,0,71,74,84,40,51,-59.1,27,28.0,23.0,-1007.0
9.409,2,-1,165,0,0,0,71,74,84,40,51,-59.1,27,28.0,23.0,-1007.0
9.467,2,-1,165,0,0,0,71,74,84,40,51,-59.1,27,28.0,23.0,-1007.0
9.525,1,-1,165,0,0,0,71,74,85,40,51,-59.15,28,25.0,26.0,-1001.0
9.583,1,-1,165,0,0,0,71,74,85,40,51,-59.15,28,25.0,26.0,-1001.0
9.642,1,-1,165,0,0,0,71,73,86,40,51,-59.19,28,32.0,30.0,-989.0
9.693,1,-1,165,0,0,0,71,73,86,40,51,-59.19,28,32.0,30.0,-989.0
9.752,1,-1,165,0,0,0,71,73,86,40,51,-59.19,28,32.0,30.0,-989.0
9.810,1,-1,165,0,0,0,71,73,87,40,51,-59.1,28,26.0,22.0,-996.0
9.868,1,-1,165,0,0,0,71,73,87,40,51,-59.1,28,26.0,22.0,-996.0
9.919,1,-1,165,0,0,0,71,73,87,40,51,-59.1,28,26.0,22.0,-996.0
9.970,1,-1,165,0,0,0,71,73,87,40,51,-59.1,28,26.0,22.0,-996.0
10.027,1,-1,165,0,0,0,71,73,87,40,51,-59.05,28,10.0,31.0,-1004.0
10.086,1,-1,165,0,0,0,71,73,87,40,51,-59.05,28,10.0,31.0,-1004.0
10.143,1,-1,165,0,0,0,71,73,87,40,51,-59.05,28,10.0,31.0,-1004.0
10.201,1,-1,165,0,0,0,71,73,88,40,51,-59.06,28,29.0,28.0,-986.0
10.259,1,-1,165,0,0,0,71,73,88,50,51,-59.08,28,-4.0,24.0,-966.0
10.310,1,-1,165,0,0,0,71,73,88,50,51,-59.08,28,-4.0,24.0,-966.0
10.368,1,-1,165,0,0,0,71,73,88,50,51,-59.08,28,45.0,19.0,-1017.0
10.418,1,-1,165,0,0,0,71,73,88,50,51,-59.08,28,45.0,19.0,-1017.0
10.468,1,-1,165,0,0,0,71,73,88,50,51,-59.08,28,45.0,19.0,-1017.0
10.528,1,-1,165,0,0,0,71,73,89,50,51,-59.15,29,28.0,11.0,-1012.0
10.585,1,-1,165,0,0,0,71,73,89,50,51,-59.08,29,29.0,7.0,-1002.0
10.636,1,-1,165,0,0,0,70,73,90,50,51,-59.11,29,21.0,4.0,-986.0
10.687,1,-1,165,0,0,0,70,73,90,50,51,-59.11,29,21.0,4.0,-986.0
10.745,1,-1,165,0,0,0,70,73,90,50,51,-59.11,29,21.0,4.0,-986.0
10.796,1,-1,165,0,0,0,70,73,90,50,51,-59.11,29,21.0,4.0,-986.0
10.854,2,-1,165,0,0,0,70,73,90,50,51,-59.09,29,15.0,19.0,-994.0
10.913,2,-1,165,0,0,0,70,73,90,50,51,-59.09,29,15.0,19.0,-994.0
10.972,2,-1,165,0,0,0,70,73,90,50,51,-59.15,29,12.0,19.0,-967.0
11.029,2,-1,165,0,0,0,70,73,90,50,51,-59.15,29,12.0,19.0,-967.0
11.086,1,-1,165,0,0,0,70,73,90,50,51,-59.13,29,39.0,24.0,-991.0
11.136,1,-1,164,0,0,0,70,73,90,50,51,-59.11,29,13.0,19.0,-1009.0
11.187,1,-1,164,0,0,0,70,73,90,50,51,-59.11,29,13.0,19.0,-1009.0
11.246,1,-1,164,0,0,0,70,73,90,50,51,-59.11,29,13.0,19.0,-1009.0
11.304,1,-1,164,0,0,0,70,73,90,50,51,-59.11,29,13.0,19.0,-1009.0
11.361,1,-1,164,0,0,0,70,73,90,50,51,-59.14,29,43.0,12.0,-998.0
11.419,1,-1,164,0,0,0,70,73,90,50,51,-59.14,29,43.0,12.0,-998.0
11.470,1,-1,164,0,0,0,70,73,90,50,51,-59.14,29,43.0,12.0,-998.0
11.529,1,-1,164,0,0,0,70,73,89,50,51,-59.12,30,10.0,22.0,-986.0
11.586,1,-1,164,0,0,0,70,73,89,50,51,-59.15,30,36.0,22.0,-989.0
11.645,1,-1,164,0,0,0,70,73,89,50,51,-59.15,30,36.0,22.0,-989.0
11.703,1,-1,164,0,0,0,70,73,89,50,51,-59.15,30,36.0,22.0,-989.0
11.754,1,-2,164,0,0,0,71,72,88,50,51,-59.16,30,26.0,16.0,-991.0
11.805,1,-2,164,0,0,0,71,72,88,50,51,-59.16,30,26.0,16.0,-991.0
11.863,1,-2,164,0,0,0,71,72,86,50,51,-59.16,30,23.0,37.0,-982.0
11.921,1,-2,164,0,0,0,71,72,86,50,51,-59.16,30,23.0,37.0,-982.0
11.979,1,-2,164,0,0,0,71,72,86,50,51,-59.16,30,23.0,37.0,-982.0
12.039,1,-2,164,0,0,0,71,72,86,50,51,-59.18,30,48.0,28.0,-1061.0
12.095,1,-2,165,0,0,0,71,72,85,50,51,-59.14,30,39.0,39.0,-987.0
12.152,1,-2,165,0,0,0,71,72,85,50,51,-59.14,30,39.0,39.0,-987.0
12.210,1,-2,165,0,0,0,71,72,85,50,51,-59.14,30,39.0,39.0,-987.0
12.270,2,-2,165,0,0,0,71,72,84,40,51,-59.19,30,48.0,28.0,-1011.0
12.336,2,-2,165,0,0,0,71,72,84,40,51,-59.19,30,48.0,28.0,-1011.0
12.395,2,-2,165,0,0,0,71,72,84,40,51,-59.14,30,80.0,10.0,-1017.0
12.453,2,-2,165,0,0,0,71,72,83,40,51,-59.22,31,89.0,0.0,-1039.0
12.518,2,-2,165,0,0,0,71,72,83,40,51,-59.22,31,89.0,0.0,-1039.0
12.574,2,-1,165,0,0,0,71,72,83,40,51,-59.15,31,45.0,25.0,-1003.0
12.632,2,-1,165,0,0,0,71,72,83,40,51,-59.15,31,45.0,25.0,-1003.0
12.691,2,-1,165,0,0,0,71,72,83,40,51,-59.15,31,45.0,25.0,-1003.0
12.750,2,-1,165,0,0,0,71,72,83,40,51,-59.15,31,45.0,25.0,-1003.0
12.808,2,0,165,0,0,0,71,72,83,40,51,-59.2,31,31.0,4.0,-1018.0
12.868,2,-1,165,0,0,0,71,72,83,40,51,-59.28,31,37.0,37.0,-980.0
12.926,3,-1,165,0,0,0,71,72,83,40,51,-59.2,31,78.0,-5.0,-1029.0
12.984,3,-1,165,0,0,0,71,72,83,40,51,-59.2,31,78.0,-5.0,-1029.0
13.042,3,-1,165,0,0,0,71,72,83,40,51,-59.2,31,78.0,-5.0,-1029.0
13.099,4,-1,165,0,0,0,71,72,84,40,51,-59.18,31,35.0,34.0,-1001.0
13.158,4,0,165,0,0,0,71,72,84,40,51,-59.1,31,78.0,26.0,-985.0
13.209,4,0,165,0,0,0,71,72,84,40,51,-59.1,31,78.0,26.0,-985.0
13.267,4,0,165,0,0,0,71,72,85,40,51,-59.18,31,61.0,28.0,-990.0
13.326,4,0,165,0,0,0,71,72,85,40,51,-59.18,31,61.0,28.0,-990.0
13.384,4,-1,165,0,0,0,71,72,85,40,51,-59.2,31,52.0,29.0,-994.0
13.443,4,-1,165,0,0,0,71,72,85,40,51,-59.2,31,52.0,29.0,-994.0
13.494,4,-1,165,0,0,0,71,72,85,40,51,-59.29,32,50.0,29.0,-1010.0
13.556,3,-1,165,0,0,0,71,72,86,40,51,-59.13,32,46.0,29.0,-1021.0
13.617,3,-1,165,0,0,0,71,72,86,40,51,-59.13,32,46.0,29.0,-1021.0
13.675,3,-1,165,0,0,0,70,73,85,40,51,-59.12,32,59.0,10.0,-986.0
13.726,3,-1,165,0,0,0,70,73,85,40,51,-59.12,32,59.0,10.0,-986.0
13.784,3,0,165,0,0,0,70,73,85,40,51,-59.16,32,30.0,30.0,-974.0
13.843,3,0,165,0,0,0,70,73,86,40,51,-59.18,32,35.0,13.0,-975.0
13.901,3,0,165,0,0,0,70,73,86,40,51,-59.18,32,35.0,13.0,-975.0
13.960,3,0,165,0,0,0,70,73,86,40,51,-59.18,32,35.0,13.0,-975.0
14.019,3,0,165,0,0,0,70,73,86,40,51,-59.18,32,35.0,13.0,-975.0
14.083,3,0,165,0,0,0,70,73,86,40,51,-59.18,32,35.0,13.0,-975.0
14.142,3,0,165,0,0,0,70,73,86,40,51,-59.51,32,33.0,20.0,-971.0
14.201,2,0,165,0,0,0,70,73,86,40,51,-59.14,32,44.0,64.0,-1008.0
14.251,2,0,165,0,0,0,70,73,86,40,51,-59.14,32,44.0,64.0,-1008.0
14.310,2,0,165,0,0,0,70,73,85,40,51,-57.12,32,-104.0,260.0,-715.0
14.369,1,0,163,0,-2,2,70,73,84,40,51,-59.5,32,-187.0,179.0,-1161.0
14.419,1,0,163,0,-2,2,70,73,84,40,51,-59.5,32,-187.0,179.0,-1161.0
14.469,1,0,163,0,-2,2,70,73,84,40,51,-59.5,32,-187.0,179.0,-1161.0
14.528,7,1,161,2,-5,1,70,73,83,40,51,-58.52,33,-156.0,6.0,-1174.0
14.593,-1,-5,166,4,-6,0,70,73,83,40,51,-58.62,33,95.0,47.0,-1025.0
14.652,-1,-5,166,4,-6,0,70,73,83,40,51,-58.62,33,95.0,47.0,-1025.0
14.711,-6,-1,174,3,-6,0,70,72,85,40,51,-59.08,33,115.0,96.0,-988.0
14.776,-6,-1,174,3,-6,0,70,72,85,40,51,-59.08,33,115.0,96.0,-988.0
14.834,-3,-5,-179,1,-6,0,70,72,85,40,51,-59.13,33,62.0,54.0,-953.0
14.885,0,-6,176,0,-6,0,70,72,85,40,51,-59.23,33,74.0,61.0,-988.0
14.935,0,-6,176,0,-6,0,70,72,85,40,51,-59.23,33,74.0,61.0,-988.0
14.994,0,-6,176,0,-6,0,70,72,85,40,51,-59.23,33,74.0,61.0,-988.0
15.044,-1,-6,166,0,-5,0,70,72,85,40,51,-59.13,33,64.0,33.0,-1040.0
15.108,0,-5,164,0,-4,0,70,72,84,40,51,-59.0,33,42.0,40.0,-1037.0
15.167,0,-5,164,0,-4,0,70,72,84,40,51,-59.0,33,42.0,40.0,-1037.0
15.217,0,-5,164,-1,-3,0,70,72,85,40,51,-59.35,33,8.0,43.0,-1042.0
15.268,0,-6,164,-1,-3,0,70,72,85,40,51,-59.21,33,45.0,21.0,-1023.0
15.318,0,-6,164,-1,-3,0,70,72,85,40,51,-59.21,33,45.0,21.0,-1023.0
15.377,0,-6,164,-1,-2,0,70,72,86,40,51,-59.28,33,60.0,18.0,-1002.0
15.435,0,-6,164,-1,-2,0,70,72,86,40,51,-59.28,33,60.0,18.0,-1002.0
15.494,0,-6,164,-1,-2,0,70,72,86,40,51,-59.28,33,60.0,18.0,-1002.0
15.554,0,-5,164,-2,-1,0,70,72,88,40,51,-59.18,34,20.0,20.0,-989.0
15.609,1,-5,163,-2,0,0,70,72,88,40,51,-59.21,34,-23.0,34.0,-960.0
15.667,1,-5,163,-2,0,0,70,72,88,40,51,-59.21,34,-23.0,34.0,-960.0
15.726,1,-5,163,-2,0,0,70,72,88,40,51,-59.21,34,-23.0,34.0,-960.0
15.785,1,-5,163,-2,0,0,70,72,88,40,51,-59.21,34,-23.0,34.0,-960.0
15.843,2,-5,163,-1,0,0,69,73,89,50,51,-59.25,34,-20.0,20.0,-992.0
15.909,1,-5,163,-1,1,0,69,73,89,50,51,-59.27,34,-17.0,27.0,-1017.0
15.966,1,-5,163,-1,1,0,69,73,89,50,51,-59.27,34,-17.0,27.0,-1017.0
16.026,1,-5,163,-1,1,0,69,73,89,50,51,-59.27,34,-17.0,27.0,-1017.0
16.082,1,-5,164,0,2,0,69,73,89,50,51,-59.24,34,16.0,35.0,-1012.0
16.140,1,-5,164,0,2,0,69,73,90,50,51,-59.24,34,-9.0,51.0,-986.0
16.191,1,-5,164,0,2,0,69,73,90,50,51,-59.24,34,-9.0,51.0,-986.0
16.242,1,-5,164,0,3,0,69,73,89,50,51,-59.23,34,-1.0,71.0,-1012.0
16.300,1,-5,164,0,3,0,69,73,89,50,51,-59.23,34,-1.0,71.0,-1012.0
16.352,0,-3,164,0,3,0,69,73,89,50,51,-59.27,34,-3.0,61.0,-1001.0
16.410,0,-3,164,0,3,0,69,73,89,50,51,-59.27,34,-3.0,61.0,-1001.0
16.468,0,-3,164,0,3,0,69,73,89,50,51,-59.27,34,-3.0,61.0,-1001.0
16.527,0,-3,164,0,3,0,69,73,89,50,51,-59.27,34,-3.0,61.0,-1001.0
16.586,1,-2,164,0,2,0,69,73,89,50,51,-59.26,35,24.0,56.0,-1000.0
16.645,1,-2,164,0,2,0,70,73,88,50,51,-59.27,35,4.0,66.0,-1008.0
16.702,1,-2,164,0,2,0,70,73,88,50,51,-59.27,35,4.0,66.0,-1008.0
16.753,0,-1,164,0,2,0,70,73,88,50,51,-59.19,35,-5.0,82.0,-949.0
16.812,0,-1,164,0,2,0,70,73,88,50,51,-59.19,35,-5.0,82.0,-949.0
16.871,1,-2,164,0,2,0,70,73,88,50,51,-59.18,35,15.0,54.0,-1003.0
16.921,1,-2,164,0,2,0,70,73,88,50,51,-59.18,35,15.0,54.0,-1003.0
16.979,1,-2,164,0,2,0,70,73,87,50,51,-59.24,35,0.0,53.0,-979.0
17.045,1,-2,164,0,2,0,70,73,87,50,51,-59.24,35,0.0,53.0,-979.0
17.110,1,-1,164,0,1,0,70,73,86,50,51,-59.31,35,-27.0,50.0,-985.0
17.161,1,-1,164,0,1,0,70,73,86,50,51,-59.31,35,-27.0,50.0,-985.0
17.220,1,-1,164,0,1,0,70,73,86,50,51,-59.31,35,-27.0,50.0,-985.0
17.279,1,-1,164,0,1,0,70,73,84,50,51,-59.38,35,8.0,59.0,-991.0
17.337,1,-1,164,0,1,0,70,73,84,50,51,-59.38,35,8.0,59.0,-991.0
17.395,1,-1,164,0,1,0,70,73,83,40,51,-59.35,35,-5.0,50.0,-986.0
17.454,1,-1,164,0,1,0,70,73,83,40,51,-59.35,35,-5.0,50.0,-986.0
17.513,1,-1,164,0,1,0,70,73,82,40,51,-59.32,36,-9.0,50.0,-1024.0
17.571,1,-1,164,0,1,0,70,73,82,40,50,-59.34,36,8.0,40.0,-985.0
17.635,1,-1,164,0,1,0,70,73,82,40,50,-59.34,36,8.0,40.0,-985.0
17.694,1,-1,164,0,1,0,70,73,82,40,50,-59.34,36,8.0,40.0,-985.0
17.752,1,-1,164,0,1,0,70,73,82,40,50,-59.34,36,8.0,40.0,-985.0
17.810,1,-1,164,0,0,0,70,72,81,40,50,-59.31,36,-11.0,46.0,-1011.0
17.869,1,-1,164,0,0,0,70,72,81,40,50,-59.38,36,21.0,39.0,-1046.0
17.928,1,-1,164,0,0,0,70,72,81,40,50,-59.38,36,21.0,39.0,-1046.0
17.978,1,-2,164,0,0,0,70,72,81,40,50,-59.39,36,0.0,37.0,-997.0
18.044,1,-2,164,0,0,0,70,72,81,40,50,-59.39,36,0.0,37.0,-997.0
18.102,1,-2,164,0,0,0,70,72,80,40,50,-59.38,36,6.0,53.0,-1037.0
18.160,1,-2,164,0,0,0,70,72,80,40,50,-59.38,36,6.0,53.0,-1037.0
18.226,1,-2,165,0,0,0,70,72,81,40,50,-59.29,36,13.0,35.0,-994.0
18.276,1,-2,165,0,0,0,70,72,81,40,50,-59.42,36,7.0,34.0,-1002.0
18.335,1,-2,165,0,0,0,70,72,81,40,50,-59.42,36,7.0,34.0,-1002.0
18.394,1,-1,165,0,0,0,70,72,82,40,50,-59.38,37,-8.0,42.0,-984.0
18.444,1,-1,165,0,0,0,70,72,82,40,50,-59.38,37,-8.0,42.0,-984.0
18.495,1,-1,165,0,0,0,70,72,82,40,50,-59.37,37,22.0,38.0,-990.0
18.546,1,-1,165,0,0,0,70,72,82,40,50,-59.37,37,22.0,38.0,-990.0
18.596,2,-1,164,0,0,0,70,72,82,40,50,-59.37,37,18.0,31.0,-1001.0
18.654,2,-1,164,0,0,0,70,72,82,40,50,-59.37,37,18.0,31.0,-1001.0
18.704,2,-1,164,0,0,0,70,72,82,40,50,-59.42,37,19.0,39.0,-949.0
18.763,2,-1,164,0,0,0,70,72,82,40,50,-59.42,37,19.0,39.0,-949.0
18.821,2,-1,164,0,0,0,70,72,82,40,50,-59.39,37,29.0,32.0,-933.0
18.879,2,-1,164,0,0,0,70,72,82,40,50,-59.39,37,29.0,32.0,-933.0
18.938,2,-1,164,0,0,1,70,72,81,40,50,-59.35,37,10.0,35.0,-929.0
18.995,1,-1,164,0,0,2,70,72,79,40,50,-59.38,37,18.0,32.0,-926.0
19.054,1,-1,164,0,0,2,70,72,79,40,50,-59.38,37,18.0,32.0,-926.0
19.105,1,-1,165,0,0,3,70,72,77,40,50,-59.45,37,19.0,39.0,-945.0
19.161,1,-1,165,0,0,3,70,72,77,40,50,-59.45,37,19.0,39.0,-945.0
19.211,1,-1,165,0,0,3,70,72,73,30,50,-59.38,37,16.0,34.0,-933.0
19.269,1,-1,165,0,0,3,70,72,73,30,50,-59.38,37,16.0,34.0,-933.0
19.327,1,-1,165,0,0,4,70,72,69,30,50,-59.52,37,22.0,24.0,-951.0
19.385,1,-1,165,0,0,4,70,72,69,30,50,-59.52,37,22.0,24.0,-951.0
19.435,1,-1,164,0,0,4,70,72,65,20,50,-59.52,38,21.0,25.0,-1009.0
19.494,1,-1,164,0,0,4,70,72,65,20,50,-59.52,38,21.0,25.0,-1009.0
19.552,1,-2,164,0,0,4,70,72,60,20,50,-59.62,38,6.0,29.0,-937.0
19.602,1,-2,164,0,0,4,70,72,55,10,49,-59.68,38,14.0,33.0,-977.0
19.653,1,-2,164,0,0,4,70,72,55,10,49,-59.68,38,14.0,33.0,-977.0
19.718,2,-1,165,0,0,4,70,72,49,10,49,-59.67,38,20.0,34.0,-979.0
19.775,2,-1,165,0,0,4,70,72,49,10,49,-59.67,38,20.0,34.0,-979.0
19.834,1,-2,165,0,0,4,70,72,44,0,49,-59.81,38,4.0,17.0,-996.0
19.892,1,-2,165,0,0,4,70,72,44,0,49,-59.81,38,4.0,17.0,-996.0
19.944,2,-1,165,0,0,4,70,72,39,0,49,-59.73,38,4.0,27.0,-993.0
20.002,1,-1,165,0,0,4,70,72,36,0,49,-59.85,38,17.0,12.0,-1056.0
20.060,1,-1,165,0,0,4,70,72,36,0,49,-59.85,38,17.0,12.0,-1056.0
20.119,1,-1,165,0,0,4,70,72,36,0,49,-59.85,38,17.0,12.0,-1056.0
20.177,1,-1,165,0,0,4,70,72,24,0,49,-59.95,38,20.0,28.0,-1026.0
20.244,1,-1,165,0,0,4,70,72,24,0,49,-59.95,38,20.0,28.0,-1026.0
20.294,1,-1,165,0,0,4,70,72,24,0,49,-59.95,38,20.0,28.0,-1026.0
20.353,1,-1,165,0,0,4,70,72,20,-10,49,-60.05,38,1.0,28.0,-1024.0
20.411,1,-1,165,0,0,4,70,72,17,-10,49,-60.22,39,44.0,11.0,-1024.0
20.468,1,-1,165,0,0,4,70,72,17,-10,49,-60.22,39,44.0,11.0,-1024.0
20.527,1,-1,165,0,0,4,70,72,17,-10,49,-60.22,39,44.0,11.0,-1024.0
20.577,1,-1,165,0,0,4,70,72,10,-20,49,-60.64,39,11.0,31.0,-1037.0
20.636,1,-1,165,0,0,4,70,72,10,-20,49,-60.64,39,11.0,31.0,-1037.0
20.693,1,-1,165,0,0,4,70,72,10,-20,49,-60.64,39,11.0,31.0,-1037.0
20.744,1,-1,165,0,0,3,69,72,10,-30,49,-61.31,39,11.0,17.0,-1026.0
20.794,-1,0,164,0,0,3,69,72,10,-30,49,-62.38,39,-1.0,4.0,-1071.0
20.853,-1,0,164,0,0,3,69,72,10,-30,49,-62.38,39,-1.0,4.0,-1071.0
20.911,-1,0,164,0,0,3,69,72,10,-30,49,-62.38,39,-1.0,4.0,-1071.0
20.961,-16,0,164,0,0,1,69,72,10,-30,49,-62.03,39,18.0,6.0,-1048.0
21.011,-15,0,162,0,0,0,69,72,10,-30,49,-61.69,39,25.0,-7.0,-723.0
21.062,-15,0,162,0,0,0,69,72,10,-30,49,-61.69,39,25.0,-7.0,-723.0
21.112,1,-2,162,0,1,0,69,72,10,-30,49,-62.6,39,26.0,-10.0,-1912.0
21.169,1,-2,162,0,1,0,69,72,10,-30,49,-62.6,39,26.0,-10.0,-1912.0
21.227,3,0,166,0,1,0,69,72,10,-30,49,-62.92,39,-332.0,115.0,-1475.0
21.278,3,0,166,0,1,0,69,72,10,-30,49,-62.92,39,-332.0,115.0,-1475.0
21.336,3,0,166,0,1,0,69,72,10,-30,49,-62.92,39,-332.0,115.0,-1475.0
21.394,3,0,167,2,0,0,69,72,10,-30,49,-61.56,40,57.0,-6.0,-998.0
21.453,3,0,167,2,0,0,69,72,10,-30,49,-61.56,40,57.0,-6.0,-998.0
21.503,3,0,167,2,0,0,69,72,10,-30,49,-61.56,40,57.0,-6.0,-998.0
21.561,3,0,167,2,0,0,69,72,10,-30,49,-61.56,40,57.0,-6.0,-998.0
21.619,3,0,167,2,0,0,69,72,10,-30,49,-61.24,40,52.0,-13.0,-998.0
21.684,3,0,167,2,0,0,69,72,10,-30,49,-61.24,40,52.0,-13.0,-998.0
21.734,3,0,167,2,0,0,69,72,10,-30,49,-61.24,40,52.0,-13.0,-998.0
21.793,3,0,167,2,0,0,70,72,10,-30,49,-61.17,40,44.0,-1.0,-995.0
21.851,3,0,167,2,0,0,70,72,10,-30,49,-61.17,40,44.0,-1.0,-995.0
21.910,3,0,167,3,0,0,70,72,10,-30,49,-61.21,40,52.0,-3.0,-988.0
