time_elapsed,pitch,roll,yaw,vgx,vgy,vgz,templ,temph,tof,h,bat,baro,time,agx,agy,agz
0.000,2,0,47,0,0,0,89,92,10,0,78,-60.64,19,38.0,17.0,-1000.0
0.063,2,0,47,0,0,0,89,92,10,0,78,-60.64,19,38.0,17.0,-1000.0
0.125,2,0,47,0,0,0,89,92,10,0,78,-60.66,19,38.0,17.0,-999.0
0.188,2,0,47,0,0,0,89,92,10,0,78,-60.66,19,38.0,17.0,-999.0
0.251,2,0,47,0,0,0,89,92,10,0,78,-60.66,19,53.0,11.0,-1001.0
0.304,2,0,47,0,0,0,89,92,10,0,78,-60.66,19,43.0,14.0,-1000.0
0.366,2,0,47,0,0,0,89,92,10,0,78,-60.66,19,43.0,14.0,-1000.0
0.429,2,0,47,0,0,0,89,92,10,0,78,-60.66,19,43.0,14.0,-1000.0
0.492,2,0,48,0,0,0,90,92,10,0,78,-60.66,19,38.0,16.0,-998.0
0.554,2,0,48,0,0,0,90,92,10,0,78,-60.66,19,36.0,8.0,-999.0
0.618,2,0,48,0,0,0,90,92,10,0,78,-60.66,19,36.0,8.0,-999.0
0.680,0,0,48,0,0,0,90,92,10,0,78,-60.66,19,12.0,23.0,-980.0
0.743,0,-1,48,0,0,-2,90,92,10,0,78,-60.66,20,61.0,-13.0,-1017.0
0.794,0,-1,48,0,0,-2,90,92,10,0,78,-60.66,20,61.0,-13.0,-1017.0
0.857,0,-1,48,0,0,-2,90,92,10,0,78,-60.66,20,61.0,-13.0,-1017.0
0.919,0,2,48,0,0,-6,90,92,14,0,78,-60.52,20,25.0,-39.0,-1380.0
0.982,0,2,48,0,0,-6,90,92,14,0,78,-60.52,20,25.0,-39.0,-1380.0
1.045,0,2,48,0,0,-6,90,92,14,0,78,-60.52,20,25.0,-39.0,-1380.0
1.107,0,1,48,0,0,-7,90,92,30,20,78,-60.14,20,-33.0,-24.0,-1112.0
1.170,0,1,48,0,0,-7,90,92,30,20,78,-60.14,20,-33.0,-24.0,-1112.0
1.232,0,1,48,0,0,-7,90,92,30,20,78,-60.14,20,-33.0,-24.0,-1112.0
1.284,0,1,48,0,0,-7,90,92,30,20,78,-60.14,20,-33.0,-24.0,-1112.0
1.347,-1,2,48,0,0,-6,90,92,45,30,78,-59.92,20,-26.0,-30.0,-954.0
1.410,-1,2,48,0,0,-6,90,92,45,30,78,-59.92,20,-26.0,-30.0,-954.0
1.472,-1,2,48,0,0,-5,91,93,52,40,78,-59.92,20,-7.0,-31.0,-916.0
1.535,-1,2,48,0,0,-5,91,93,52,40,78,-59.92,20,-7.0,-31.0,-916.0
1.598,-1,2,48,0,0,-5,91,93,52,40,78,-59.92,20,-7.0,-31.0,-916.0
1.660,0,2,48,0,0,-4,91,93,62,50,78,-59.76,20,-28.0,-14.0,-893.0
1.723,0,2,48,0,0,-4,91,93,62,50,78,-59.76,20,-28.0,-14.0,-893.0
1.786,0,1,48,0,0,-3,91,93,66,50,78,-59.72,21,-8.0,-25.0,-915.0
1.855,-1,1,48,0,0,-2,91,93,70,50,78,-59.65,21,0.0,-24.0,-909.0
1.918,-1,1,48,0,0,-2,91,93,70,50,78,-59.65,21,0.0,-24.0,-909.0
1.981,-1,1,48,0,0,-2,91,93,70,50,78,-59.65,21,0.0,-24.0,-909.0
2.044,0,1,48,0,0,-1,91,93,75,60,78,-59.59,21,-5.0,-20.0,-970.0
2.106,0,1,48,0,0,-1,91,93,75,60,78,-59.59,21,-5.0,-20.0,-970.0
2.169,-1,1,48,0,0,-1,91,93,77,60,78,-59.62,21,-19.0,-19.0,-955.0
2.232,-1,1,48,0,0,0,91,93,79,60,78,-59.63,21,-34.0,-22.0,-967.0
2.295,-1,1,48,0,0,0,91,93,79,60,78,-59.63,21,-34.0,-22.0,-967.0
2.347,0,1,48,0,0,0,91,93,81,60,78,-59.62,21,9.0,-23.0,-977.0
2.410,0,1,48,0,0,0,91,93,81,60,78,-59.62,21,9.0,-23.0,-977.0
2.473,0,1,48,0,0,0,89,93,82,60,78,-59.56,21,-18.0,-15.0,-966.0
2.535,0,1,48,0,0,0,89,93,82,60,78,-59.56,21,-18.0,-15.0,-966.0
2.598,0,1,48,0,0,0,89,93,82,60,78,-59.56,21,-18.0,-15.0,-966.0
2.661,0,1,48,0,0,0,89,93,84,60,78,-59.58,21,-27.0,-15.0,-983.0
2.723,0,1,48,0,0,0,89,93,84,60,78,-59.58,21,-27.0,-15.0,-983.0
2.786,0,1,48,0,0,0,89,93,84,60,78,-59.58,21,-27.0,-15.0,-983.0
2.839,-1,1,48,0,0,0,89,93,86,70,78,-59.62,22,19.0,-36.0,-1012.0
2.902,-1,1,48,0,0,0,89,93,87,70,78,-59.63,22,-27.0,-15.0,-997.0
2.965,-1,1,48,0,0,0,89,93,87,70,78,-59.63,22,-27.0,-15.0,-997.0
3.027,-1,1,48,0,0,0,89,93,87,70,78,-59.63,22,-27.0,-15.0,-997.0
3.090,0,1,48,0,0,0,89,93,87,70,78,-59.6,22,-5.0,-30.0,-994.0
3.152,-1,0,48,0,0,0,89,93,87,70,78,-59.63,22,19.0,-37.0,-1044.0
3.215,-1,0,48,0,0,0,89,93,87,70,78,-59.63,22,19.0,-37.0,-1044.0
3.278,-1,0,48,0,0,0,89,93,87,70,78,-59.61,22,-23.0,-15.0,-959.0
3.331,-1,0,48,0,0,0,89,93,87,70,78,-59.6,22,-27.0,-18.0,-960.0
3.394,-1,0,48,0,0,0,89,93,87,70,78,-59.6,22,-27.0,-18.0,-960.0
3.457,-1,0,48,0,0,0,89,93,87,70,78,-59.56,22,-36.0,-19.0,-982.0
3.520,-1,1,48,0,0,0,89,93,86,70,78,-59.64,22,-15.0,-20.0,-1009.0
3.582,-1,1,48,0,0,0,89,93,86,70,78,-59.64,22,-15.0,-20.0,-1009.0
3.645,-1,1,48,0,0,0,89,93,86,70,78,-59.64,22,-15.0,-20.0,-1009.0
3.708,-1,0,48,0,0,0,89,93,86,70,78,-59.59,22,-42.0,-15.0,-954.0
3.771,-1,0,48,0,0,0,89,93,86,70,78,-59.56,23,10.0,-22.0,-987.0
3.822,-1,0,48,0,0,0,89,93,86,70,78,-59.56,23,10.0,-22.0,-987.0
3.885,-1,1,48,0,0,0,89,93,85,70,78,-59.66,23,33.0,-40.0,-1028.0
3.948,-1,1,48,0,0,0,89,93,84,70,78,-59.63,23,-44.0,-9.0,-969.0
4.011,-1,1,48,0,0,0,89,93,84,70,78,-59.63,23,-44.0,-9.0,-969.0
4.074,-1,0,48,0,0,0,89,93,83,70,78,-59.62,23,-20.0,-17.0,-1012.0
4.136,-1,1,48,0,0,0,89,93,83,70,78,-59.54,23,-22.0,-12.0,-1020.0
4.199,-1,1,48,0,0,0,89,93,83,70,78,-59.54,23,-22.0,-12.0,-1020.0
4.262,-1,1,48,0,0,0,89,93,83,70,78,-59.54,23,-22.0,-12.0,-1020.0
4.328,-1,0,48,0,0,0,89,93,81,70,78,-59.67,23,-25.0,-23.0,-993.0
4.387,-1,0,48,0,0,0,89,93,81,70,78,-59.67,23,-25.0,-23.0,-993.0
4.449,-1,0,48,0,0,0,89,93,81,70,78,-59.67,23,-25.0,-23.0,-993.0
4.512,-1,1,48,0,0,0,89,91,80,70,78,-59.63,23,-4.0,-31.0,-1035.0
4.575,-1,1,48,0,0,0,89,91,80,70,78,-59.65,23,4.0,-24.0,-995.0
4.638,-1,1,48,0,0,0,89,91,80,70,78,-59.65,23,4.0,-24.0,-995.0
4.701,-1,1,48,0,0,0,89,91,79,70,78,-59.7,23,-37.0,-19.0,-988.0
4.764,-1,1,48,0,0,0,89,91,79,60,78,-59.66,24,-13.0,-22.0,-1027.0
4.827,-1,1,48,0,0,0,89,91,79,60,78,-59.66,24,-13.0,-22.0,-1027.0
4.880,-1,1,48,0,0,0,89,91,78,60,78,-59.65,24,-13.0,-21.0,-1006.0
4.943,0,1,48,0,0,0,89,91,78,60,78,-59.62,24,0.0,-32.0,-1010.0
5.006,0,1,48,0,0,0,89,91,78,60,78,-59.62,24,0.0,-32.0,-1010.0
5.069,0,1,48,0,0,0,89,91,78,60,78,-59.62,24,0.0,-32.0,-1010.0
5.132,0,1,48,0,0,0,89,91,78,60,78,-59.68,24,-15.0,-39.0,-989.0
5.195,0,1,48,0,0,0,89,91,78,60,78,-59.64,24,-20.0,-25.0,-972.0
5.257,0,1,48,0,0,0,89,91,78,60,78,-59.64,24,-20.0,-25.0,-972.0
5.320,0,2,48,0,0,0,89,91,78,60,78,-59.72,24,-47.0,-26.0,-1027.0
5.373,0,2,48,0,0,0,89,91,78,60,78,-59.61,24,-1.0,-43.0,-1063.0
5.436,0,2,48,0,0,0,89,91,78,60,78,-59.61,24,-1.0,-43.0,-1063.0
5.499,0,2,48,0,0,0,90,91,78,60,78,-59.68,24,9.0,-37.0,-1001.0
5.561,0,2,48,0,0,0,90,91,78,60,78,-59.7,24,1.0,-35.0,-996.0
5.624,0,2,48,0,0,0,90,91,78,60,78,-59.7,24,1.0,-35.0,-996.0
5.688,0,2,48,0,0,0,90,91,78,60,78,-59.73,24,-2.0,-23.0,-982.0
5.750,0,2,48,0,0,0,90,91,78,60,78,-59.73,24,-2.0,-23.0,-982.0
5.813,0,1,48,0,0,0,90,91,78,60,78,-59.67,25,-4.0,-40.0,-989.0
5.865,0,1,48,0,0,0,90,91,78,60,78,-59.66,25,-13.0,-25.0,-995.0
5.928,0,1,48,0,0,0,90,91,78,60,78,-59.66,25,-13.0,-25.0,-995.0
5.991,0,1,48,0,0,0,90,91,78,60,78,-59.66,25,4.0,-38.0,-989.0
6.054,0,1,48,0,0,0,90,91,78,60,78,-59.66,25,4.0,-38.0,-989.0
6.117,0,1,48,0,0,0,90,91,77,60,78,-59.66,25,-22.0,-16.0,-1006.0
6.180,-1,1,48,0,0,0,90,91,77,60,78,-59.59,25,-4.0,-19.0,-1005.0
6.243,-1,1,48,0,0,0,90,91,77,60,78,-59.59,25,-4.0,-19.0,-1005.0
6.306,-1,1,48,0,0,0,90,91,77,60,78,-59.59,25,-4.0,-19.0,-1005.0
6.357,-1,1,48,0,0,0,90,91,77,60,78,-59.68,25,-12.0,-23.0,-1025.0
6.421,-1,1,48,0,0,0,90,91,77,60,78,-59.72,25,-16.0,-16.0,-1017.0
6.485,-1,1,48,0,0,0,90,91,77,60,78,-59.72,25,-16.0,-16.0,-1017.0
6.547,0,1,48,0,0,0,89,90,77,60,78,-59.7,25,-4.0,-26.0,-1037.0
6.610,-1,1,48,0,0,0,89,90,77,60,78,-59.71,25,-33.0,-29.0,-1016.0
6.673,-1,0,48,0,0,0,89,90,76,60,78,-59.71,25,-29.0,-17.0,-1021.0
6.735,-1,0,48,0,0,0,89,90,76,60,78,-59.69,26,-27.0,-6.0,-973.0
6.798,-1,0,48,0,0,0,89,90,76,60,78,-59.69,26,-27.0,-6.0,-973.0
6.860,-1,0,48,0,0,0,89,90,76,60,78,-59.78,26,2.0,-25.0,-1000.0
6.913,-1,0,48,0,0,0,89,90,76,60,78,-59.78,26,2.0,-25.0,-1000.0
6.975,-1,0,48,0,0,0,89,90,76,60,78,-59.68,26,-35.0,-33.0,-1058.0
7.038,-1,0,48,0,0,0,89,90,76,60,78,-59.76,26,-16.0,-13.0,-1006.0
7.101,-1,0,48,0,0,0,89,90,76,60,78,-59.76,26,-16.0,-13.0,-1006.0
7.163,-1,0,48,0,0,0,89,90,76,60,78,-59.75,26,-37.0,-17.0,-1002.0
7.226,-1,0,48,0,0,0,89,90,76,60,78,-59.75,26,-37.0,-17.0,-1002.0
7.289,-1,0,48,0,0,0,89,90,76,60,78,-59.77,26,-39.0,-25.0,-1016.0
7.351,-1,1,48,0,0,0,89,90,76,60,78,-59.77,26,-25.0,-7.0,-972.0
7.403,-1,1,48,0,0,0,89,90,76,60,78,-59.77,26,-25.0,-7.0,-972.0
7.466,0,1,48,0,0,0,88,90,76,60,78,-59.69,26,-33.0,-16.0,-1013.0
7.529,0,1,48,0,0,0,88,90,76,60,78,-59.69,26,-33.0,-16.0,-1013.0
7.592,0,1,48,0,0,0,88,90,76,60,78,-59.72,26,-19.0,-15.0,-1025.0
7.654,0,1,48,0,0,0,88,90,76,60,78,-59.73,26,-27.0,-10.0,-1018.0
7.717,0,1,48,0,0,0,88,90,76,60,78,-59.73,26,-27.0,-10.0,-1018.0
7.780,0,1,48,0,0,0,88,90,75,60,78,-59.76,27,-21.0,-15.0,-994.0
7.842,0,1,48,0,0,0,88,90,75,60,78,-59.76,27,-21.0,-15.0,-994.0
7.895,0,1,48,0,0,0,88,90,76,60,78,-59.75,27,-57.0,-11.0,-1008.0
7.958,0,0,48,0,0,0,88,90,76,60,78,-59.69,27,-12.0,-21.0,-976.0
8.020,0,0,48,0,0,0,88,90,76,60,78,-59.69,27,-12.0,-21.0,-976.0
8.083,0,1,48,0,0,0,88,90,76,60,78,-59.66,27,8.0,-20.0,-975.0
8.146,0,1,48,0,0,0,88,90,76,60,78,-59.66,27,8.0,-20.0,-975.0
8.208,0,1,48,0,0,0,88,90,76,60,78,-59.6,27,-55.0,-4.0,-990.0
8.271,-1,1,48,0,0,0,88,90,76,60,78,-59.69,27,-35.0,-8.0,-1012.0
8.334,-1,1,48,0,0,0,88,90,76,60,78,-59.69,27,-35.0,-8.0,-1012.0
8.385,-1,1,48,0,0,0,88,90,77,60,78,-59.71,27,-15.0,-32.0,-1046.0
8.448,-1,1,48,0,0,0,88,90,77,60,78,-59.71,27,-15.0,-32.0,-1046.0
8.510,0,1,48,0,0,0,88,90,77,60,78,-59.61,27,-22.0,-24.0,-1033.0
8.573,0,1,48,0,0,0,88,90,78,60,78,-59.58,27,-13.0,-19.0,-1001.0
8.636,0,1,48,0,0,0,88,90,78,60,78,-59.58,27,-13.0,-19.0,-1001.0
8.698,0,1,48,0,0,0,88,90,78,60,78,-59.66,27,-36.0,-15.0,-990.0
8.761,0,1,48,0,0,0,88,90,78,60,78,-59.66,27,-36.0,-15.0,-990.0
8.824,0,1,48,0,0,0,88,90,78,60,78,-59.68,28,-14.0,-14.0,-993.0
8.886,0,1,48,0,0,0,88,90,77,60,78,-59.66,28,-19.0,-21.0,-1000.0
8.938,0,1,48,0,0,0,88,90,77,60,78,-59.66,28,-19.0,-21.0,-1000.0
9.001,0,1,48,0,0,0,88,90,78,60,78,-59.63,28,-24.0,-12.0,-980.0
9.063,0,1,48,0,0,0,88,90,78,60,78,-59.63,28,-24.0,-12.0,-980.0
9.126,0,1,48,0,0,0,88,90,78,60,78,-59.63,28,-22.0,-28.0,-1009.0
9.189,0,1,48,0,0,0,88,90,77,60,78,-59.69,28,-17.0,-22.0,-1021.0
9.251,0,1,48,0,0,0,88,90,77,60,78,-59.69,28,-17.0,-22.0,-1021.0
9.314,0,1,48,0,0,0,88,90,78,60,78,-59.68,28,-3.0,-27.0,-1012.0
9.377,0,1,48,0,0,0,88,90,78,60,78,-59.64,28,-15.0,-21.0,-997.0
9.429,0,1,48,0,0,0,88,90,78,60,78,-59.64,28,-15.0,-21.0,-997.0
9.492,0,1,48,0,0,0,88,89,78,60,78,-59.62,28,36.0,-24.0,-1030.0
9.554,0,1,48,0,0,0,88,89,78,60,78,-59.62,28,36.0,-24.0,-1030.0
9.617,0,1,48,0,0,0,88,89,79,60,78,-59.65,28,-10.0,-23.0,-1002.0
9.680,0,1,48,0,0,0,88,89,78,60,78,-59.71,28,16.0,-42.0,-1071.0
9.742,0,1,48,0,0,0,88,89,78,60,78,-59.71,28,16.0,-42.0,-1071.0
9.805,0,1,48,0,0,0,88,89,78,60,78,-59.72,29,-4.0,-26.0,-1003.0
9.868,0,1,48,0,0,0,88,89,78,60,78,-59.72,29,-4.0,-26.0,-1003.0
9.920,0,1,48,0,0,0,88,89,79,60,78,-59.67,29,-26.0,-22.0,-996.0
9.983,0,1,48,0,0,0,88,89,79,60,78,-59.67,29,-26.0,-22.0,-996.0
10.045,0,1,48,0,0,0,88,89,79,60,78,-59.65,29,-43.0,-18.0,-1002.0
10.108,0,1,48,0,0,0,88,89,79,60,78,-59.67,29,-34.0,-26.0,-1003.0
10.171,0,1,48,0,0,0,88,89,79,60,78,-59.67,29,-34.0,-26.0,-1003.0
10.234,0,1,48,0,0,0,88,89,79,60,78,-59.67,29,-19.0,-14.0,-996.0
10.297,0,1,48,0,0,0,88,89,79,60,78,-59.67,29,-22.0,-13.0,-944.0
10.359,0,1,48,0,0,0,88,89,79,60,78,-59.64,29,-6.0,-18.0,-976.0
10.411,0,1,48,0,0,0,88,89,79,60,78,-59.64,29,-6.0,-18.0,-976.0
10.474,0,1,48,0,0,0,88,89,79,60,78,-59.64,29,-6.0,-18.0,-976.0
10.537,0,1,48,0,0,0,87,89,80,60,78,-59.65,29,-14.0,-17.0,-986.0
10.600,0,1,48,0,0,0,87,89,79,60,78,-59.67,29,-36.0,-20.0,-986.0
10.663,0,1,48,0,0,0,87,89,79,60,78,-59.67,29,-36.0,-20.0,-986.0
10.726,0,1,48,0,0,0,87,89,80,60,78,-59.66,29,-11.0,-30.0,-1001.0
10.789,0,1,48,0,0,0,87,89,80,60,78,-59.71,30,5.0,-18.0,-1047.0
10.851,0,1,48,0,0,0,87,89,80,60,78,-59.58,30,1.0,-21.0,-1015.0
10.915,0,1,48,0,0,0,87,89,80,60,78,-59.58,30,1.0,-21.0,-1015.0
10.973,-1,1,48,0,0,0,87,89,80,60,78,-59.68,30,11.0,-31.0,-998.0
11.036,-1,1,48,0,0,0,87,89,80,60,78,-59.68,30,11.0,-31.0,-998.0
11.099,-1,1,48,0,0,0,87,89,80,60,78,-59.61,30,-6.0,-15.0,-981.0
11.161,0,1,48,0,0,0,87,89,80,60,78,-59.56,30,-20.0,-10.0,-996.0
11.225,0,1,48,0,0,0,87,89,80,60,78,-59.56,30,-20.0,-10.0,-996.0
11.288,0,1,48,0,0,0,87,89,80,60,78,-59.56,30,-20.0,-10.0,-996.0
11.350,0,1,48,0,0,0,87,89,80,60,78,-59.56,30,10.0,-33.0,-1026.0
11.413,0,1,48,0,0,0,87,89,81,60,78,-59.6,30,-7.0,-14.0,-989.0
11.465,0,1,48,0,0,0,87,89,81,60,78,-59.6,30,-7.0,-14.0,-989.0
11.528,0,1,48,0,0,0,87,89,81,60,78,-59.6,30,-7.0,-14.0,-989.0
11.591,-1,1,48,0,0,0,87,89,81,60,78,-59.64,30,-15.0,-18.0,-960.0
11.654,-1,1,48,0,0,0,87,89,81,60,78,-59.64,30,-15.0,-18.0,-960.0
11.717,-1,1,48,0,0,0,87,89,82,60,78,-59.67,31,11.0,-16.0,-1009.0
11.780,-1,1,48,0,0,0,87,89,82,60,78,-59.67,31,11.0,-16.0,-1009.0
11.843,0,1,48,0,0,0,87,89,82,60,78,-59.68,31,-34.0,-20.0,-977.0
11.906,0,1,48,0,0,0,87,89,82,70,78,-59.64,31,-20.0,-30.0,-985.0
11.957,0,1,48,0,0,0,87,89,82,70,78,-59.64,31,-20.0,-30.0,-985.0
12.020,0,1,48,0,0,0,87,89,82,70,78,-59.66,31,-50.0,-12.0,-949.0
12.084,0,1,48,0,0,0,87,89,83,70,78,-59.69,31,-22.0,-31.0,-1020.0
12.146,0,1,48,0,0,0,87,89,83,70,78,-59.69,31,-22.0,-31.0,-1020.0
12.209,0,1,48,0,0,0,87,89,83,70,78,-59.63,31,0.0,-24.0,-981.0
12.272,0,1,48,0,0,0,87,89,83,70,78,-59.63,31,0.0,-24.0,-981.0
12.335,0,1,48,0,0,0,87,89,82,70,78,-59.66,31,-19.0,-15.0,-979.0
12.398,0,1,48,0,0,0,87,89,82,70,78,-59.61,31,4.0,-14.0,-1023.0
12.450,0,1,48,0,0,0,87,89,82,70,78,-59.61,31,4.0,-14.0,-1023.0
12.515,0,1,48,0,0,0,87,89,82,70,78,-59.61,31,4.0,-14.0,-1023.0
12.578,0,1,48,0,0,0,86,88,82,70,78,-59.67,31,-21.0,-9.0,-986.0
12.641,0,1,48,0,0,0,86,88,82,70,78,-59.63,31,-22.0,-9.0,-985.0
12.704,0,1,48,0,0,0,86,88,82,70,78,-59.63,31,-22.0,-9.0,-985.0
12.767,0,1,48,0,0,0,86,88,82,70,78,-59.66,32,-2.0,-15.0,-1015.0
12.830,0,1,48,0,0,0,86,88,81,60,78,-59.6,32,-28.0,-14.0,-980.0
12.893,0,0,48,0,0,0,86,88,81,60,78,-59.65,32,-10.0,-25.0,-1046.0
12.955,0,0,48,0,0,0,86,88,81,60,78,-59.65,32,-10.0,-25.0,-1046.0
13.007,0,0,48,0,0,0,86,88,81,60,78,-59.65,32,-10.0,-25.0,-1046.0
13.070,0,1,48,0,0,0,86,88,81,60,78,-59.69,32,-12.0,-6.0,-957.0
13.133,0,1,48,0,0,0,86,88,80,60,78,-59.64,32,4.0,-31.0,-1024.0
13.196,0,1,48,0,0,0,86,88,80,60,78,-59.61,32,-19.0,-14.0,-1033.0
13.259,0,1,48,0,0,0,86,88,80,60,78,-59.61,32,-19.0,-14.0,-1033.0
13.322,0,1,48,0,0,0,86,88,80,60,78,-59.61,32,-19.0,-14.0,-1033.0
13.385,0,1,48,0,0,0,86,88,80,60,78,-59.7,32,-15.0,-15.0,-978.0
13.448,0,1,48,0,0,0,86,88,79,60,78,-59.69,32,-4.0,-29.0,-1017.0
13.501,0,1,48,0,0,0,86,88,79,60,78,-59.69,32,-4.0,-29.0,-1017.0
13.563,0,1,48,0,0,0,86,88,79,60,78,-59.69,32,-4.0,-29.0,-1017.0
13.626,0,1,48,0,0,0,86,88,79,60,78,-59.67,32,-23.0,-11.0,-994.0
13.689,0,1,48,0,0,0,86,88,79,60,78,-59.67,32,-23.0,-11.0,-994.0
13.752,0,1,48,0,0,0,86,88,78,60,78,-59.77,33,-5.0,-18.0,-986.0
13.815,0,1,48,0,0,0,86,88,78,60,78,-59.77,33,-5.0,-18.0,-986.0
13.878,0,1,48,0,0,0,86,88,78,60,78,-59.77,33,-5.0,-18.0,-986.0
13.941,0,1,48,0,0,0,86,88,78,60,78,-59.71,33,-21.0,-11.0,-1000.0
13.993,0,0,48,0,0,0,86,88,78,60,78,-59.66,33,3.0,-11.0,-1020.0
14.055,0,0,48,0,0,0,86,88,78,60,78,-59.66,33,3.0,-11.0,-1020.0
14.118,0,0,48,0,0,0,86,88,78,60,78,-59.64,33,28.0,-27.0,-993.0
14.181,0,0,48,0,0,0,86,88,78,60,78,-59.76,33,-36.0,-7.0,-994.0
14.244,0,0,48,0,0,0,86,88,78,60,78,-59.76,33,-36.0,-7.0,-994.0
14.306,0,0,48,0,0,0,86,88,79,60,78,-59.7,33,6.0,-17.0,-989.0
14.369,0,0,48,0,0,0,86,88,79,60,78,-59.66,33,34.0,-22.0,-996.0
14.431,0,0,48,0,0,0,86,88,79,60,78,-59.66,33,34.0,-22.0,-996.0
14.483,0,0,48,0,0,0,86,88,79,60,78,-59.66,33,34.0,-22.0,-996.0
14.547,0,1,48,0,0,0,85,87,79,60,78,-59.67,33,13.0,-19.0,-1004.0
14.610,0,1,48,0,0,0,85,87,79,60,78,-59.67,33,13.0,-19.0,-1004.0
14.672,0,1,48,0,0,0,85,87,79,60,78,-59.67,33,13.0,-19.0,-1004.0
14.735,0,1,48,0,0,0,85,87,79,60,78,-59.65,34,5.0,-24.0,-947.0
14.798,0,0,48,0,0,0,85,87,79,60,78,-59.59,34,-25.0,-10.0,-1005.0
14.860,0,0,48,0,0,0,85,87,79,60,78,-59.59,34,-25.0,-10.0,-1005.0
14.923,0,0,48,0,0,0,85,87,80,60,78,-59.71,34,-6.0,-25.0,-1023.0
14.986,-1,0,48,0,0,0,85,87,80,60,78,-59.66,34,-14.0,-14.0,-984.0
15.039,-1,0,48,0,0,0,85,87,80,60,78,-59.66,34,-14.0,-14.0,-984.0
15.102,-1,0,48,0,0,0,85,87,80,60,78,-59.66,34,-14.0,-14.0,-984.0
15.164,-1,0,48,0,0,0,85,87,81,60,78,-59.66,34,-26.0,-11.0,-1001.0
15.227,0,0,48,0,0,0,85,87,81,60,78,-59.62,34,16.0,-11.0,-1044.0
15.290,0,0,48,0,0,0,85,87,81,60,78,-59.62,34,16.0,-11.0,-1044.0
15.352,0,0,48,0,0,0,85,87,81,60,78,-59.65,34,-24.0,-8.0,-986.0
15.415,0,0,48,0,0,0,85,87,81,60,78,-59.71,34,-9.0,-11.0,-983.0
15.478,0,0,48,0,0,0,85,87,81,60,78,-59.71,34,-9.0,-11.0,-983.0
15.531,0,0,48,0,0,0,85,87,81,60,78,-59.61,34,-23.0,-19.0,-958.0
15.594,0,0,48,0,0,0,85,87,80,60,78,-59.68,34,-13.0,-19.0,-980.0
15.656,0,0,48,0,0,0,85,87,80,60,78,-59.68,34,-13.0,-19.0,-980.0
15.719,0,0,48,0,0,0,85,87,80,60,78,-59.61,35,10.0,-16.0,-1004.0
15.781,0,0,48,0,0,0,85,87,80,60,78,-59.61,35,10.0,-16.0,-1004.0
15.844,0,0,48,0,0,0,85,87,80,60,78,-59.68,35,-24.0,-19.0,-1011.0
15.907,0,1,48,0,0,0,85,87,79,60,78,-59.68,35,15.0,-15.0,-979.0
15.969,0,1,48,0,0,0,85,87,79,60,78,-59.68,35,15.0,-15.0,-979.0
16.023,0,1,48,0,0,0,85,87,79,60,78,-59.68,35,-19.0,-14.0,-990.0
16.086,0,1,48,0,0,0,85,87,79,60,78,-59.68,35,-19.0,-14.0,-990.0
16.148,0,1,48,0,0,0,85,87,79,60,78,-59.61,35,-2.0,-15.0,-1012.0
16.211,0,1,48,0,0,0,85,87,79,60,78,-59.6,35,-15.0,-20.0,-1064.0
16.274,0,1,48,0,0,0,85,87,79,60,78,-59.6,35,-15.0,-20.0,-1064.0
16.336,0,1,48,0,0,0,85,87,79,60,78,-59.6,35,-15.0,-20.0,-1064.0
16.392,0,0,48,0,0,0,85,87,79,60,78,-59.64,35,-1.0,-17.0,-1004.0
16.455,0,1,48,0,0,0,85,87,80,60,78,-59.67,35,1.0,-15.0,-1027.0
16.506,0,1,48,0,0,0,85,87,80,60,78,-59.67,35,1.0,-15.0,-1027.0
16.570,0,1,48,0,0,0,85,87,80,60,78,-59.59,35,-6.0,-11.0,-901.0
16.633,0,1,48,0,0,0,85,87,79,60,78,-59.61,35,12.0,-22.0,-935.0
16.696,0,1,48,0,0,0,85,87,79,60,78,-59.61,35,12.0,-22.0,-935.0
16.758,0,1,48,0,0,1,85,87,78,60,78,-59.66,36,-5.0,-25.0,-941.0
16.821,0,1,48,0,0,2,85,87,76,60,78,-59.65,36,-4.0,-17.0,-902.0
16.883,0,1,48,0,0,2,85,87,76,60,78,-59.65,36,-4.0,-17.0,-902.0
16.946,0,1,48,0,0,2,85,87,76,60,78,-59.65,36,-4.0,-17.0,-902.0
17.009,0,1,48,0,0,3,85,87,73,60,78,-59.76,36,-17.0,-25.0,-929.0
17.061,0,1,48,0,0,3,85,87,69,60,78,-59.73,36,4.0,-20.0,-910.0
17.124,0,1,48,0,0,3,85,87,69,60,78,-59.73,36,4.0,-20.0,-910.0
17.187,0,1,48,0,0,4,85,87,65,50,78,-59.81,36,9.0,-35.0,-981.0
17.250,0,1,48,0,0,4,85,87,60,50,78,-59.78,36,7.0,-22.0,-998.0
17.312,0,1,48,0,0,4,85,87,60,50,78,-59.78,36,7.0,-22.0,-998.0
17.374,0,1,48,0,0,4,85,87,54,40,78,-59.83,36,-3.0,-24.0,-972.0
17.437,0,1,48,0,0,4,85,87,49,40,78,-59.97,36,23.0,-28.0,-1010.0
17.500,0,1,48,0,0,4,85,87,49,40,78,-59.97,36,23.0,-28.0,-1010.0
17.552,0,1,48,0,0,4,85,87,49,40,78,-59.97,36,23.0,-28.0,-1010.0
17.615,0,1,48,0,0,4,85,87,44,30,78,-59.9,36,33.0,-15.0,-986.0
17.677,0,1,48,0,0,4,85,87,38,30,78,-59.98,36,9.0,-13.0,-1048.0
17.740,0,1,48,0,0,4,85,87,38,30,78,-59.98,36,9.0,-13.0,-1048.0
17.803,0,1,48,0,0,4,85,87,33,20,78,-60.07,37,30.0,-21.0,-1042.0
17.866,0,1,48,0,0,4,85,87,30,20,78,-60.15,37,3.0,-28.0,-1014.0
17.928,0,1,48,0,0,4,85,87,30,20,78,-60.15,37,3.0,-28.0,-1014.0
17.991,0,1,48,0,0,4,85,87,24,10,78,-60.16,37,27.0,-12.0,-987.0
18.044,0,1,48,0,0,4,85,87,19,10,78,-60.27,37,31.0,-31.0,-1002.0
18.107,0,1,48,0,0,4,85,87,19,10,78,-60.27,37,31.0,-31.0,-1002.0
18.170,0,1,48,0,0,4,85,87,19,10,78,-60.27,37,31.0,-31.0,-1002.0
18.233,0,1,48,0,0,4,85,87,16,0,78,-60.47,37,44.0,-26.0,-1044.0
18.296,1,1,48,0,0,4,85,87,10,0,78,-60.89,37,21.0,-33.0,-1044.0
18.359,0,1,48,0,0,3,85,87,10,0,78,-61.52,37,1.0,-29.0,-1056.0
18.422,0,1,48,0,0,3,85,87,10,0,78,-62.77,37,25.0,-30.0,-1060.0
18.485,0,1,48,0,0,3,85,87,10,0,78,-62.77,37,25.0,-30.0,-1060.0
18.536,0,1,48,0,0,3,85,87,10,0,78,-62.77,37,25.0,-30.0,-1060.0
18.600,1,0,48,0,0,2,85,87,10,0,78,-63.82,37,-398.0,142.0,-2907.0
