time_elapsed,pitch,roll,yaw,vgx,vgy,vgz,templ,temph,tof,h,bat,baro,time,agx,agy,agz
0.000,0,-1,-110,0,0,0,78,81,10,0,46,-60.35,60,-15.0,21.0,-999.0
0.066,0,-1,-110,0,0,0,78,81,10,0,46,-60.35,60,-15.0,21.0,-999.0
0.124,0,-1,-110,0,0,0,78,81,10,0,46,-60.35,60,-15.0,22.0,-998.0
0.182,0,-1,-110,0,0,0,78,81,10,0,46,-60.35,60,-15.0,22.0,-998.0
0.241,0,-1,-110,0,0,0,78,81,10,0,46,-60.35,60,-9.0,22.0,-998.0
0.296,0,-1,-110,0,0,0,78,81,10,0,46,-60.35,60,-9.0,22.0,-998.0
0.347,0,-1,-110,0,0,0,78,81,10,0,46,-60.35,60,-21.0,17.0,-997.0
0.397,0,-1,-110,0,0,0,78,81,10,0,46,-60.35,60,-21.0,17.0,-997.0
0.455,0,-1,-110,0,0,0,78,81,10,0,46,-60.35,60,-32.0,21.0,-1025.0
0.513,0,-1,-110,0,0,0,78,81,10,0,46,-60.35,60,18.0,-7.0,-986.0
0.571,0,-1,-110,0,0,0,78,81,10,0,46,-60.35,60,18.0,-7.0,-986.0
0.622,0,-1,-110,0,0,0,78,81,10,0,46,-60.35,60,-4.0,6.0,-1083.0
0.672,0,-1,-110,0,0,0,78,81,10,0,46,-60.35,60,-4.0,6.0,-1083.0
0.730,0,0,-110,0,0,0,78,81,10,0,46,-60.35,60,25.0,-6.0,-1197.0
0.788,0,0,-110,0,0,0,78,81,10,0,46,-60.35,60,25.0,-6.0,-1197.0
0.839,-2,0,-110,0,0,-2,78,81,10,0,46,-60.35,60,27.0,-11.0,-1298.0
0.898,-2,0,-110,0,0,-2,78,81,10,0,46,-60.35,60,27.0,-11.0,-1298.0
0.956,2,1,-110,0,0,-4,78,81,10,0,46,-60.35,61,-25.0,31.0,-1222.0
1.014,0,0,-110,0,0,-6,78,81,17,0,46,-60.04,61,-5.0,33.0,-1078.0
1.072,0,0,-110,0,0,-6,78,81,17,0,46,-60.04,61,-5.0,33.0,-1078.0
1.130,0,-1,-110,0,0,-6,78,81,26,0,46,-59.94,61,-2.0,21.0,-1002.0
1.189,0,-1,-110,0,0,-6,78,81,26,0,46,-59.94,61,-2.0,21.0,-1002.0
1.247,0,-1,-110,0,0,-6,78,81,33,0,46,-59.85,61,-11.0,33.0,-1001.0
1.308,0,-1,-110,0,0,-6,78,81,33,0,46,-59.85,61,-11.0,33.0,-1001.0
1.366,-1,-2,-110,0,0,-6,78,81,42,10,46,-59.77,61,-2.0,20.0,-994.0
1.423,-1,-2,-110,0,0,-5,78,81,50,10,46,-59.62,61,2.0,18.0,-924.0
1.474,-1,-2,-110,0,0,-5,78,81,50,10,46,-59.62,61,2.0,18.0,-924.0
1.532,0,-1,-110,0,0,-5,78,81,57,20,46,-59.61,61,-32.0,28.0,-952.0
1.590,0,-1,-110,0,0,-5,78,81,57,20,46,-59.61,61,-32.0,28.0,-952.0
1.656,0,-1,-110,0,0,-4,78,81,64,20,46,-59.53,61,36.0,26.0,-924.0
1.714,0,-1,-110,0,0,-4,78,81,64,20,46,-59.53,61,36.0,26.0,-924.0
1.772,0,-2,-110,0,0,-3,79,82,71,30,46,-59.47,61,-4.0,19.0,-900.0
1.830,0,-2,-110,0,0,-2,79,82,76,30,46,-59.36,61,1.0,33.0,-948.0
1.889,0,-2,-110,0,0,-2,79,82,76,30,46,-59.36,61,1.0,33.0,-948.0
1.946,0,-2,-110,0,0,-1,79,82,81,30,46,-59.33,62,16.0,12.0,-930.0
2.006,0,-2,-110,0,0,-1,79,82,81,30,46,-59.33,62,16.0,12.0,-930.0
2.064,0,-2,-110,0,0,-1,79,82,85,30,46,-59.28,62,-12.0,33.0,-950.0
2.123,0,-2,-110,0,0,-1,79,82,85,30,46,-59.28,62,-12.0,33.0,-950.0
2.181,0,-1,-110,0,0,0,79,82,88,40,46,-59.31,62,-3.0,27.0,-974.0
2.239,0,-1,-110,0,0,0,79,82,91,40,46,-59.26,62,-17.0,26.0,-930.0
2.304,0,-1,-110,0,0,0,79,82,91,40,46,-59.26,62,-17.0,26.0,-930.0
2.363,0,-1,-110,0,0,0,79,82,93,40,46,-59.21,62,-2.0,30.0,-922.0
2.421,0,-1,-110,0,0,0,79,82,93,40,46,-59.21,62,-2.0,30.0,-922.0
2.471,0,-1,-110,0,0,0,79,82,95,40,46,-59.19,62,16.0,33.0,-945.0
2.530,0,-1,-110,0,0,0,79,82,95,40,46,-59.19,62,16.0,33.0,-945.0
2.589,0,-1,-110,0,0,0,79,82,96,40,46,-59.23,62,-8.0,34.0,-949.0
2.647,0,0,-110,0,0,0,79,82,97,50,46,-59.25,62,7.0,26.0,-955.0
2.705,0,0,-110,0,0,0,79,82,97,50,46,-59.25,62,7.0,26.0,-955.0
2.763,0,-1,-110,0,0,0,79,81,98,50,46,-59.22,62,-13.0,32.0,-1000.0
2.819,0,-1,-110,0,0,0,79,81,98,50,46,-59.22,62,-13.0,32.0,-1000.0
2.870,0,-1,-110,0,0,0,79,81,98,50,46,-59.18,62,21.0,28.0,-992.0
2.928,0,-1,-110,0,0,0,79,81,98,50,46,-59.18,62,21.0,28.0,-992.0
2.987,0,-1,-110,0,0,0,79,81,98,50,46,-59.24,63,3.0,20.0,-971.0
3.038,0,-1,-110,0,0,0,79,81,98,50,46,-59.24,63,3.0,20.0,-971.0
3.088,0,-1,-110,0,0,1,79,81,99,50,46,-59.21,63,5.0,23.0,-971.0
3.147,0,-1,-110,0,0,1,79,81,99,50,46,-59.21,63,5.0,23.0,-971.0
3.207,0,-1,-110,0,0,1,79,81,99,50,46,-59.16,63,37.0,14.0,-959.0
3.272,0,-1,-110,0,0,1,79,81,99,50,46,-59.16,63,37.0,14.0,-959.0
3.337,0,-1,-110,0,0,1,79,81,99,50,46,-59.16,63,37.0,14.0,-959.0
3.396,0,-1,-110,0,0,1,79,81,98,50,46,-59.14,63,-11.0,22.0,-978.0
3.455,0,0,-110,0,0,1,79,81,97,50,46,-59.19,63,0.0,23.0,-962.0
3.505,0,0,-110,0,0,1,79,81,97,50,46,-59.19,63,0.0,23.0,-962.0
3.564,0,0,-110,0,0,1,79,81,97,50,46,-59.19,63,0.0,23.0,-962.0
3.623,0,0,-110,0,0,1,79,81,95,50,46,-59.25,63,-25.0,23.0,-964.0
3.681,0,0,-110,0,0,1,79,81,95,50,46,-59.25,63,-25.0,23.0,-964.0
3.740,0,0,-110,0,0,1,78,80,94,50,46,-59.33,63,28.0,21.0,-976.0
3.798,0,0,-110,0,0,1,78,80,94,50,46,-59.33,63,28.0,21.0,-976.0
3.863,0,0,-110,0,0,1,78,80,94,50,46,-59.33,63,28.0,21.0,-976.0
3.920,0,-1,-110,0,0,1,78,80,91,50,46,-59.23,64,21.0,29.0,-993.0
3.977,0,-1,-110,0,0,1,78,80,91,50,46,-59.23,64,21.0,29.0,-993.0
4.029,0,-1,-110,0,0,1,78,80,90,50,46,-59.31,64,8.0,32.0,-1009.0
4.088,0,-1,-110,0,0,1,78,80,90,50,46,-59.31,64,8.0,32.0,-1009.0
4.146,0,-1,-110,0,0,1,78,80,90,50,46,-59.31,64,8.0,32.0,-1009.0
4.204,0,-1,-110,0,0,1,78,80,88,50,46,-59.29,64,0.0,18.0,-999.0
4.262,0,-1,-110,0,0,1,78,80,87,40,46,-59.31,64,13.0,7.0,-1017.0
4.313,0,-1,-110,0,0,1,78,80,87,40,46,-59.31,64,13.0,7.0,-1017.0
4.377,0,-1,-110,0,0,1,78,80,87,40,46,-59.31,64,13.0,7.0,-1017.0
4.428,0,-1,-110,0,0,1,78,80,85,40,46,-59.42,64,0.0,23.0,-996.0
4.486,0,-1,-110,0,0,1,78,80,84,40,46,-59.39,64,11.0,17.0,-1056.0
4.545,0,-1,-110,0,0,1,78,80,83,40,46,-59.38,64,-8.0,26.0,-1015.0
4.596,0,-1,-110,0,0,1,78,80,83,40,46,-59.38,64,-8.0,26.0,-1015.0
4.654,0,-1,-110,0,0,1,78,80,83,40,46,-59.38,64,-8.0,26.0,-1015.0
4.713,0,-1,-110,0,0,0,78,80,82,40,46,-59.37,64,17.0,18.0,-1000.0
4.771,0,-1,-110,0,0,0,77,80,80,40,46,-59.36,64,-7.0,24.0,-995.0
4.822,0,-1,-110,0,0,0,77,80,80,40,46,-59.36,64,-7.0,24.0,-995.0
4.881,0,-1,-110,0,0,0,77,80,80,40,46,-59.36,64,-7.0,24.0,-995.0
4.939,0,-1,-110,0,0,0,77,80,79,40,46,-59.42,64,-26.0,29.0,-1036.0
4.997,0,-1,-110,0,0,0,77,80,78,40,46,-59.37,65,-11.0,17.0,-1005.0
5.055,0,-1,-110,0,0,0,77,80,77,40,46,-59.4,65,2.0,21.0,-992.0
5.113,0,-1,-110,0,0,0,77,80,77,40,46,-59.4,65,2.0,21.0,-992.0
5.172,0,-1,-110,0,0,0,77,80,76,40,46,-59.36,65,-18.0,25.0,-1079.0
5.230,0,-1,-110,0,0,0,77,80,76,40,46,-59.36,65,-18.0,25.0,-1079.0
5.280,0,-1,-110,0,0,0,77,80,76,40,46,-59.4,65,30.0,10.0,-1007.0
5.346,0,-1,-110,0,0,0,77,80,76,40,46,-59.4,65,30.0,10.0,-1007.0
5.404,0,-1,-110,0,0,0,77,80,76,40,46,-59.4,65,30.0,10.0,-1007.0
5.455,0,-1,-110,0,0,0,77,80,75,30,46,-59.4,65,-15.0,23.0,-1027.0
5.513,0,-1,-110,0,0,0,77,80,75,30,46,-59.39,65,-10.0,29.0,-995.0
5.573,0,0,-110,0,0,0,77,80,74,30,46,-59.42,65,8.0,15.0,-1013.0
5.632,0,0,-110,0,0,0,77,80,74,30,46,-59.42,65,8.0,15.0,-1013.0
5.690,0,0,-110,0,0,0,77,80,74,30,46,-59.42,65,8.0,15.0,-1013.0
5.749,0,-1,-110,0,0,0,77,80,74,30,46,-59.42,65,15.0,27.0,-1023.0
5.807,0,0,-110,0,0,0,77,79,74,30,46,-59.42,65,2.0,6.0,-990.0
5.864,0,0,-110,0,0,0,77,79,74,30,46,-59.42,65,2.0,6.0,-990.0
5.915,0,0,-110,0,0,0,77,79,75,30,46,-59.33,65,-2.0,19.0,-987.0
5.973,0,-1,-110,0,0,0,77,79,75,30,46,-59.44,66,14.0,18.0,-1015.0
6.031,0,-1,-110,0,0,0,77,79,75,30,46,-59.44,66,14.0,18.0,-1015.0
6.090,0,-1,-110,0,0,0,77,79,75,30,46,-59.46,66,-15.0,30.0,-988.0
6.156,0,-1,-110,0,0,0,77,79,75,30,46,-59.46,66,-15.0,30.0,-988.0
6.213,0,-1,-110,0,0,0,77,79,75,30,46,-59.46,66,-15.0,30.0,-988.0
6.271,0,-1,-110,0,0,0,77,79,76,30,46,-59.44,66,-4.0,22.0,-1026.0
6.322,0,-1,-110,0,0,0,77,79,76,30,46,-59.44,66,-4.0,22.0,-1026.0
6.380,0,-1,-110,0,0,0,77,79,76,30,46,-59.44,66,-4.0,22.0,-1026.0
6.439,0,-1,-110,0,0,0,77,79,76,30,46,-59.44,66,-4.0,22.0,-1026.0
6.497,0,-1,-110,0,0,0,77,79,77,30,46,-59.45,66,-4.0,11.0,-987.0
6.556,0,-1,-110,0,0,0,77,79,77,30,46,-59.47,66,-1.0,20.0,-971.0
6.614,0,-1,-110,0,0,0,77,79,77,30,46,-59.47,66,-1.0,20.0,-971.0
6.664,0,-1,-110,0,0,0,77,79,78,30,46,-59.47,66,-2.0,27.0,-1007.0
6.724,0,-1,-110,0,0,0,77,79,78,30,46,-59.47,66,-2.0,27.0,-1007.0
6.781,0,-1,-110,0,0,0,76,78,78,30,46,-59.45,66,-20.0,17.0,-990.0
6.831,0,-1,-110,0,0,0,76,78,78,30,46,-59.45,66,-20.0,17.0,-990.0
6.888,0,-1,-110,0,0,0,76,78,78,30,46,-59.45,66,-20.0,17.0,-990.0
6.948,0,-1,-110,0,0,0,76,78,78,30,46,-59.45,66,-20.0,17.0,-990.0
7.006,0,-1,-110,0,0,0,76,78,79,30,46,-59.4,67,-6.0,19.0,-968.0
7.056,0,-1,-110,0,0,0,76,78,79,30,46,-59.45,67,3.0,23.0,-985.0
7.107,0,-1,-110,0,0,0,76,78,79,30,46,-59.45,67,3.0,23.0,-985.0
7.165,0,-1,-110,0,0,0,76,78,79,30,46,-59.45,67,3.0,23.0,-985.0
7.224,0,-1,-110,0,0,0,76,78,80,40,46,-59.38,67,-5.0,12.0,-989.0
7.281,0,-1,-110,0,0,0,76,78,80,40,46,-59.39,67,-24.0,22.0,-1020.0
7.339,0,-1,-110,0,0,0,76,78,80,40,46,-59.39,67,-24.0,22.0,-1020.0
7.404,1,-1,-110,0,0,0,76,78,80,40,46,-59.33,67,-14.0,28.0,-1004.0
7.463,0,-1,-110,0,0,0,76,78,81,40,46,-59.37,67,-1.0,13.0,-997.0
7.522,0,-1,-110,0,0,0,76,78,81,40,46,-59.37,67,-1.0,13.0,-997.0
7.580,0,-1,-110,0,0,0,76,78,81,40,46,-59.37,67,-1.0,13.0,-997.0
7.638,0,0,-110,0,0,0,76,78,81,40,46,-59.32,67,-1.0,5.0,-994.0
7.697,0,0,-110,0,0,0,76,78,81,40,46,-59.38,67,-9.0,14.0,-1009.0
7.756,0,0,-110,0,0,0,76,78,81,40,46,-59.38,67,-9.0,14.0,-1009.0
7.814,0,0,-110,0,0,0,76,79,81,40,46,-59.33,67,-1.0,3.0,-1000.0
7.870,0,0,-110,0,0,0,76,79,82,40,46,-59.28,67,-10.0,9.0,-1015.0
7.928,0,0,-110,0,0,0,76,79,82,40,46,-59.28,67,-10.0,9.0,-1015.0
7.986,0,0,-110,0,0,0,76,79,82,40,46,-59.3,68,-2.0,15.0,-993.0
8.045,0,0,-110,0,0,0,76,79,82,40,46,-59.3,68,-2.0,15.0,-993.0
8.104,0,0,-110,0,0,0,76,79,82,40,46,-59.37,68,-5.0,13.0,-1003.0
8.162,0,0,-110,0,0,0,76,79,82,40,46,-59.37,68,-5.0,13.0,-1003.0
8.221,0,0,-110,0,0,0,76,79,82,40,46,-59.41,68,0.0,-5.0,-1020.0
8.279,0,0,-110,0,0,0,76,79,82,40,46,-59.35,68,0.0,-1.0,-1011.0
8.329,0,0,-110,0,0,0,76,79,82,40,46,-59.35,68,0.0,-1.0,-1011.0
8.387,0,0,-110,0,0,0,76,79,82,40,46,-59.35,68,0.0,-1.0,-1011.0
8.445,0,0,-110,0,0,0,76,79,82,40,46,-59.31,68,6.0,0.0,-981.0
8.503,0,0,-110,0,0,0,76,79,82,40,46,-59.37,68,12.0,0.0,-1013.0
8.561,0,0,-110,0,0,0,76,79,83,40,46,-59.39,68,-9.0,7.0,-981.0
8.620,0,0,-110,0,0,0,76,79,83,40,46,-59.39,68,-9.0,7.0,-981.0
8.678,0,0,-110,0,0,0,76,79,83,40,46,-59.39,68,-9.0,7.0,-981.0
8.738,0,0,-110,0,0,0,76,79,82,40,46,-59.39,68,11.0,8.0,-995.0
8.797,0,0,-110,0,0,0,76,78,83,40,46,-59.38,68,35.0,-11.0,-998.0
8.855,0,0,-110,0,0,0,76,78,83,40,46,-59.38,68,35.0,-11.0,-998.0
8.912,0,0,-110,0,0,0,76,78,83,40,46,-59.35,69,24.0,-9.0,-987.0
8.962,0,0,-110,0,0,0,76,78,83,40,46,-59.35,69,24.0,-9.0,-987.0
9.021,0,0,-110,0,0,0,76,78,83,40,46,-59.33,69,13.0,8.0,-999.0
9.087,0,0,-110,0,0,0,76,78,83,40,46,-59.35,69,25.0,-12.0,-1017.0
9.146,0,0,-110,0,0,0,76,78,83,40,46,-59.35,69,25.0,-12.0,-1017.0
9.204,0,0,-110,0,0,0,76,78,83,40,46,-59.35,69,25.0,-12.0,-1017.0
9.263,0,0,-110,0,0,0,76,78,83,40,46,-59.38,69,9.0,7.0,-1004.0
9.321,0,0,-110,0,0,0,76,78,83,40,46,-59.31,69,-10.0,8.0,-1007.0
9.372,0,0,-110,0,0,0,76,78,83,40,46,-59.31,69,-10.0,8.0,-1007.0
9.430,0,0,-110,0,0,0,76,78,84,40,46,-59.34,69,-25.0,-2.0,-986.0
9.481,0,0,-110,0,0,0,76,78,84,40,46,-59.29,69,12.0,-9.0,-1005.0
9.540,0,0,-110,0,0,0,76,78,84,40,46,-59.29,69,12.0,-9.0,-1005.0
9.597,0,0,-110,0,0,0,76,78,84,40,46,-59.36,69,-32.0,13.0,-973.0
9.655,0,0,-110,0,0,0,76,78,84,40,46,-59.36,69,-32.0,13.0,-973.0
9.713,0,0,-110,0,0,0,76,78,85,40,46,-59.27,69,-23.0,1.0,-978.0
9.773,0,0,-110,0,0,0,76,78,85,40,46,-59.27,69,-23.0,1.0,-978.0
9.832,0,0,-110,0,0,0,76,78,85,40,46,-59.25,69,-17.0,-1.0,-1006.0
9.890,0,0,-110,0,0,0,76,78,85,40,46,-59.28,70,-3.0,-1.0,-998.0
9.946,0,0,-110,0,0,0,76,78,85,40,46,-59.28,70,-3.0,-1.0,-998.0
10.004,0,0,-110,0,0,0,76,78,85,40,46,-59.28,70,-3.0,-1.0,-998.0
10.055,0,0,-110,0,0,0,76,78,85,40,46,-59.32,70,-5.0,-8.0,-990.0
10.116,0,0,-110,0,0,0,76,78,85,40,46,-59.36,70,-4.0,-15.0,-1006.0
10.172,0,0,-110,0,0,0,76,78,85,40,46,-59.36,70,-4.0,-15.0,-1006.0
10.231,0,0,-110,0,0,0,76,78,85,40,46,-59.36,70,1.0,-15.0,-1014.0
10.290,0,0,-110,0,0,0,76,78,85,40,46,-59.36,70,1.0,-15.0,-1014.0
10.348,0,0,-110,0,0,0,76,78,85,40,46,-59.26,70,11.0,-15.0,-1036.0
10.413,0,0,-110,0,0,0,76,78,85,40,46,-59.32,70,2.0,-13.0,-990.0
10.463,0,0,-110,0,0,0,76,78,85,40,46,-59.32,70,2.0,-13.0,-990.0
10.522,0,0,-110,0,0,0,76,78,85,40,46,-59.32,70,2.0,-13.0,-990.0
10.573,0,0,-110,0,0,0,76,78,85,40,46,-59.37,70,-2.0,-4.0,-995.0
10.631,0,0,-110,0,0,0,76,78,85,40,46,-59.37,70,-2.0,-4.0,-995.0
10.691,0,0,-110,0,0,0,76,78,85,40,46,-59.37,70,-2.0,-4.0,-995.0
10.755,0,0,-110,0,0,0,76,78,85,40,46,-59.33,70,-23.0,-21.0,-1002.0
10.813,0,0,-110,0,0,0,75,78,85,40,46,-59.36,70,-17.0,-2.0,-968.0
10.871,0,0,-110,0,0,0,75,78,84,40,46,-59.31,71,-31.0,-2.0,-971.0
10.936,0,0,-110,0,0,0,75,78,84,40,46,-59.31,71,-31.0,-2.0,-971.0
10.995,0,0,-110,0,0,0,75,78,84,40,46,-59.35,71,17.0,-17.0,-980.0
11.045,0,0,-110,0,0,0,75,78,84,40,46,-59.35,71,17.0,-17.0,-980.0
11.095,0,0,-110,0,0,0,75,78,84,40,46,-59.31,71,-15.0,-21.0,-991.0
11.146,0,0,-110,0,0,0,75,78,84,40,46,-59.31,71,-15.0,-21.0,-991.0
11.197,0,0,-110,0,0,0,75,78,84,40,46,-59.31,71,-4.0,-16.0,-992.0
11.247,0,0,-110,0,0,0,75,78,84,40,46,-59.31,71,-4.0,-16.0,-992.0
11.298,0,0,-110,0,0,0,75,78,84,40,46,-59.29,71,-18.0,-23.0,-990.0
11.356,0,0,-110,0,0,0,75,78,84,40,46,-59.29,71,-18.0,-23.0,-990.0
11.415,0,1,-110,0,0,0,75,78,84,40,46,-59.28,71,-28.0,-8.0,-996.0
11.472,0,0,-110,0,0,0,75,78,84,40,46,-59.28,71,26.0,-23.0,-1001.0
11.523,0,0,-110,0,0,0,75,78,84,40,46,-59.28,71,26.0,-23.0,-1001.0
11.582,0,0,-110,0,0,0,75,78,84,40,46,-59.28,71,26.0,-23.0,-1001.0
11.640,0,0,-110,0,0,0,75,78,84,40,46,-59.28,71,26.0,-23.0,-1001.0
11.698,0,0,-110,0,0,0,75,78,83,40,46,-59.24,71,-2.0,-9.0,-980.0
11.757,0,0,-110,0,0,0,75,78,83,40,46,-59.24,71,-2.0,-9.0,-980.0
11.815,0,1,-110,0,0,0,75,78,83,40,46,-59.34,71,0.0,-10.0,-981.0
11.873,0,1,-110,0,0,0,75,78,83,40,46,-59.34,71,0.0,-10.0,-981.0
11.931,0,1,-110,0,0,0,75,78,83,40,46,-59.27,72,-12.0,-11.0,-997.0
11.982,0,1,-110,0,0,0,75,78,83,40,46,-59.27,72,-12.0,-11.0,-997.0
12.040,0,0,-110,0,0,0,75,78,83,40,46,-59.32,72,-17.0,-16.0,-1028.0
12.098,0,0,-110,0,0,0,75,78,84,40,46,-59.3,72,6.0,-4.0,-975.0
12.156,0,0,-110,0,0,0,75,78,84,40,46,-59.3,72,6.0,-4.0,-975.0
12.215,1,0,-110,0,0,0,75,78,84,40,46,-59.25,72,1.0,-13.0,-996.0
12.273,1,0,-110,0,0,0,75,78,84,40,46,-59.25,72,1.0,-13.0,-996.0
12.332,1,0,-110,0,0,0,75,78,84,40,46,-59.3,72,10.0,-16.0,-990.0
12.390,0,0,-110,0,0,0,75,78,84,40,46,-59.25,72,26.0,-15.0,-1009.0
12.446,0,0,-110,0,0,0,75,78,84,40,46,-59.25,72,26.0,-15.0,-1009.0
12.496,1,0,-110,0,0,0,75,78,85,40,46,-59.28,72,2.0,-13.0,-1035.0
12.555,1,0,-110,0,0,0,75,78,85,40,46,-59.28,72,2.0,-13.0,-1035.0
12.613,1,0,-110,0,0,0,75,78,84,40,46,-59.3,72,-7.0,-2.0,-983.0
12.664,1,0,-110,0,0,0,75,78,84,40,46,-59.3,72,-7.0,-2.0,-983.0
12.724,1,0,-110,0,0,0,75,78,84,40,46,-59.34,72,2.0,-10.0,-985.0
12.782,1,0,-110,0,0,0,75,78,84,40,46,-59.34,72,2.0,-10.0,-985.0
12.840,1,0,-110,0,0,0,75,77,84,40,46,-59.3,72,15.0,-23.0,-987.0
12.898,1,0,-110,0,0,0,75,77,84,40,46,-59.22,73,-10.0,-4.0,-976.0
12.962,1,0,-110,0,0,0,75,77,84,40,46,-59.22,73,-10.0,-4.0,-976.0
13.027,1,8,-106,5,0,0,75,77,46,40,46,-59.24,73,-198.0,934.0,-1447.0
13.085,1,8,-106,5,0,0,75,77,46,40,46,-59.24,73,-198.0,934.0,-1447.0
13.143,1,5,-107,6,0,0,75,77,65,40,46,-59.33,73,-50.0,-7.0,-983.0
13.193,1,5,-107,6,0,0,75,77,65,40,46,-59.33,73,-50.0,-7.0,-983.0
13.244,-1,-6,-109,5,0,0,75,77,81,40,46,-59.23,73,18.0,-64.0,-1050.0
13.295,-1,-6,-109,5,0,0,75,77,81,40,46,-59.23,73,18.0,-64.0,-1050.0
13.353,-1,-5,-110,4,0,0,75,77,81,40,46,-59.2,73,-13.0,-44.0,-1058.0
13.404,-1,-5,-110,4,0,0,75,77,81,40,46,-59.2,73,-13.0,-44.0,-1058.0
13.454,0,-5,-110,2,0,0,75,77,80,40,46,-59.38,73,20.0,-42.0,-1011.0
13.505,0,-5,-110,2,0,0,75,77,80,40,46,-59.38,73,20.0,-42.0,-1011.0
13.564,-1,-4,-110,1,0,0,75,77,80,40,46,-59.33,73,17.0,-26.0,-1013.0
13.622,0,-4,-110,0,0,0,75,77,79,40,46,-59.33,73,40.0,-31.0,-1021.0
13.681,0,-4,-110,0,0,0,75,77,79,40,46,-59.33,73,40.0,-31.0,-1021.0
13.739,0,-3,-110,0,0,0,75,77,79,40,46,-59.29,73,3.0,-18.0,-1004.0
13.797,0,-3,-110,0,0,0,75,77,79,40,46,-59.29,73,3.0,-18.0,-1004.0
13.848,1,-1,-110,-1,0,0,75,77,78,40,46,-59.24,73,32.0,-7.0,-1011.0
13.898,1,-1,-110,-1,0,0,75,77,78,40,46,-59.24,73,32.0,-7.0,-1011.0
13.962,1,0,-110,-2,0,0,75,77,77,40,46,-59.3,74,1.0,-26.0,-962.0
14.021,1,0,-110,-2,0,0,75,77,77,40,46,-59.3,74,1.0,-26.0,-962.0
14.080,1,0,-110,-2,0,0,75,77,77,40,46,-59.29,74,-21.0,-18.0,-1020.0
14.137,1,1,-110,-2,0,0,75,77,77,40,46,-59.38,74,20.0,-11.0,-1021.0
14.195,1,1,-110,-2,0,0,75,77,77,40,46,-59.38,74,20.0,-11.0,-1021.0
14.253,0,2,-110,-2,0,0,75,77,76,40,46,-59.39,74,13.0,-25.0,-1016.0
14.312,0,2,-110,-2,0,0,75,77,76,40,46,-59.39,74,13.0,-25.0,-1016.0
14.362,1,2,-110,-1,0,0,75,77,76,40,46,-59.36,74,16.0,-19.0,-954.0
14.420,1,2,-110,-1,0,0,75,77,75,40,46,-59.47,74,-2.0,-17.0,-1019.0
14.478,1,2,-110,-1,0,0,75,77,75,40,46,-59.47,74,-2.0,-17.0,-1019.0
14.528,1,2,-110,-1,0,0,75,77,75,40,46,-59.47,74,-2.0,-17.0,-1019.0
14.579,0,1,-110,-1,0,0,75,77,74,40,46,-59.45,74,12.0,-26.0,-939.0
14.637,0,1,-110,-1,0,0,75,77,74,40,46,-59.45,74,12.0,-26.0,-939.0
14.688,0,1,-110,-1,0,0,75,77,74,40,46,-59.45,74,12.0,-26.0,-939.0
14.746,0,2,-110,-2,0,0,75,77,73,30,46,-59.45,74,-5.0,-26.0,-1003.0
14.805,0,2,-110,-2,0,0,75,77,73,30,46,-59.45,74,-5.0,-26.0,-1003.0
14.864,4,2,-110,-1,0,0,76,77,73,30,46,-59.49,74,38.0,-40.0,-1045.0
14.921,4,2,-110,-1,0,0,76,77,72,30,46,-59.5,75,22.0,-24.0,-1031.0
14.986,4,2,-110,-1,0,0,76,77,72,30,46,-59.5,75,22.0,-24.0,-1031.0
15.036,4,2,-110,-1,0,0,76,77,72,30,46,-59.5,75,22.0,-24.0,-1031.0
15.095,4,2,-110,-1,0,0,76,77,72,30,46,-59.5,75,22.0,-24.0,-1031.0
15.154,3,3,-110,-1,0,0,76,77,72,30,46,-59.47,75,37.0,-38.0,-1035.0
15.212,3,2,-110,0,0,0,76,77,70,30,46,-59.47,75,13.0,-45.0,-1020.0
15.278,3,2,-110,0,0,0,76,77,70,30,46,-59.47,75,13.0,-45.0,-1020.0
15.343,3,2,-110,0,0,0,76,77,70,30,46,-59.47,75,13.0,-45.0,-1020.0
15.402,3,2,-110,0,0,0,76,77,70,30,46,-59.44,75,29.0,-45.0,-1013.0
15.452,3,2,-110,0,0,0,76,77,70,30,46,-59.44,75,29.0,-45.0,-1013.0
15.518,3,2,-110,0,0,0,76,77,70,30,46,-59.44,75,29.0,-45.0,-1013.0
15.576,3,2,-110,0,0,0,76,77,70,30,46,-59.5,75,16.0,-31.0,-1009.0
15.634,2,2,-110,0,0,0,76,77,70,30,46,-59.47,75,16.0,-13.0,-1004.0
15.692,2,2,-110,0,0,0,76,77,70,30,46,-59.47,75,16.0,-13.0,-1004.0
15.751,2,2,-110,0,0,0,76,77,70,30,46,-59.47,75,16.0,-13.0,-1004.0
15.810,2,2,-110,0,0,0,74,77,69,30,46,-59.47,75,30.0,-24.0,-998.0
15.867,2,2,-110,0,0,0,74,77,69,30,46,-59.47,75,30.0,-24.0,-998.0
15.918,2,2,-110,0,0,0,74,77,69,30,46,-59.47,75,30.0,-24.0,-998.0
15.975,2,2,-110,0,0,0,74,77,69,30,46,-59.45,76,22.0,-33.0,-1009.0
16.034,2,1,-110,0,0,0,74,77,68,30,46,-59.52,76,35.0,-34.0,-991.0
16.085,2,1,-110,0,0,0,74,77,68,30,46,-59.52,76,35.0,-34.0,-991.0
16.136,2,1,-110,0,0,0,74,77,68,30,46,-59.52,76,35.0,-34.0,-991.0
16.186,3,1,-110,0,0,0,74,77,68,30,46,-59.55,76,63.0,-33.0,-994.0
16.244,3,1,-110,0,0,0,74,77,67,30,46,-59.52,76,44.0,-30.0,-956.0
16.303,3,1,-110,0,0,0,74,77,67,30,46,-59.52,76,44.0,-30.0,-956.0
16.361,3,1,-110,0,0,0,74,77,67,30,46,-59.54,76,57.0,-40.0,-1018.0
16.419,3,1,-110,0,0,0,74,77,67,30,46,-59.54,76,57.0,-40.0,-1018.0
16.476,3,1,-110,0,0,0,74,77,67,30,46,-59.54,76,57.0,-40.0,-1018.0
16.535,3,2,-110,0,0,0,74,77,66,30,46,-59.58,76,42.0,-26.0,-1007.0
16.586,3,2,-110,0,0,0,74,77,66,30,46,-59.58,76,42.0,-26.0,-1007.0
16.644,3,2,-110,0,0,0,74,77,66,30,46,-59.58,76,42.0,-26.0,-1007.0
16.695,3,2,-110,0,0,0,74,77,66,30,46,-59.63,76,81.0,-42.0,-1016.0
16.753,4,1,-110,0,0,0,74,77,66,30,46,-59.51,76,71.0,-40.0,-1002.0
16.812,4,1,-110,0,0,0,74,77,66,30,46,-59.51,76,71.0,-40.0,-1002.0
16.870,4,1,-110,0,0,0,74,77,66,30,46,-59.51,76,71.0,-40.0,-1002.0
16.929,4,1,-110,0,0,0,75,77,67,30,46,-59.59,77,58.0,-11.0,-1005.0
16.986,4,1,-110,0,0,0,75,77,67,30,46,-59.59,77,58.0,-11.0,-1005.0
17.045,4,1,-110,0,0,0,75,77,67,30,46,-59.59,77,58.0,-11.0,-1005.0
17.103,4,0,-110,0,0,0,75,77,67,30,46,-59.53,77,59.0,-21.0,-1038.0
17.154,5,0,-110,0,0,0,75,77,67,30,46,-59.53,77,91.0,-37.0,-1024.0
17.212,5,0,-110,0,0,0,75,77,67,30,46,-59.53,77,91.0,-37.0,-1024.0
17.271,5,0,-110,0,0,0,75,77,67,30,46,-59.53,77,91.0,-37.0,-1024.0
17.329,5,0,-109,0,0,0,75,77,68,30,46,-59.58,77,72.0,-29.0,-966.0
17.380,5,0,-109,0,0,0,75,77,68,30,46,-59.6,77,32.0,-22.0,-988.0
17.430,5,0,-109,0,0,0,75,77,68,30,46,-59.6,77,32.0,-22.0,-988.0
17.488,5,0,-109,0,0,0,75,77,68,30,46,-59.6,77,32.0,-22.0,-988.0
17.545,4,1,-109,0,0,0,75,77,68,30,46,-59.68,77,50.0,-44.0,-991.0
17.611,4,1,-109,0,0,0,75,77,68,30,46,-59.68,77,50.0,-44.0,-991.0
17.670,4,1,-109,0,0,0,75,77,68,30,46,-59.68,77,50.0,-44.0,-991.0
17.729,3,1,-109,0,1,0,75,77,68,30,46,-59.64,77,53.0,-30.0,-998.0
17.787,2,1,-109,0,1,0,75,77,67,30,46,-59.61,77,23.0,-37.0,-1001.0
17.838,2,1,-109,0,1,0,75,77,67,30,46,-59.61,77,23.0,-37.0,-1001.0
17.896,2,1,-109,0,1,0,75,77,67,30,46,-59.61,77,23.0,-37.0,-1001.0
17.946,2,2,-110,0,1,0,75,77,68,30,46,-59.61,78,-6.0,-41.0,-992.0
18.011,2,2,-110,0,1,0,75,77,68,30,46,-59.61,78,-6.0,-41.0,-992.0
18.071,2,2,-110,0,1,0,75,77,68,30,46,-59.61,78,-6.0,-41.0,-992.0
18.129,1,1,-110,0,1,0,75,77,68,30,46,-59.62,78,-1.0,-34.0,-978.0
18.187,0,1,-110,0,1,0,75,77,68,30,46,-59.67,78,12.0,-28.0,-1017.0
18.237,0,1,-110,0,1,0,75,77,68,30,46,-59.67,78,12.0,-28.0,-1017.0
18.288,0,1,-110,0,1,0,75,77,68,30,46,-59.67,78,12.0,-28.0,-1017.0
18.346,0,2,-110,0,1,0,75,77,68,30,46,-59.57,78,10.0,-34.0,-997.0
18.396,0,2,-110,0,1,0,75,77,69,30,46,-59.51,78,24.0,-36.0,-1024.0
18.455,1,2,-110,0,1,0,75,77,70,30,46,-59.62,78,7.0,-20.0,-1041.0
18.511,0,1,-110,0,1,0,75,77,70,30,46,-59.54,78,0.0,-25.0,-961.0
18.561,0,1,-110,0,1,0,75,77,70,30,46,-59.54,78,0.0,-25.0,-961.0
18.620,0,1,-110,0,1,0,75,77,70,30,46,-59.53,78,21.0,-20.0,-1008.0
18.678,0,1,-110,0,1,0,75,77,70,30,46,-59.53,78,21.0,-20.0,-1008.0
18.736,0,1,-110,0,1,0,75,77,70,30,46,-59.53,78,21.0,-20.0,-1008.0
18.786,0,1,-110,0,0,0,75,77,71,30,46,-59.46,78,15.0,-28.0,-953.0
18.845,0,1,-110,0,0,0,75,77,72,30,46,-59.53,78,18.0,-20.0,-1032.0
18.904,0,1,-110,0,0,0,75,77,72,30,46,-59.53,78,18.0,-20.0,-1032.0
18.962,0,0,-110,0,0,0,75,77,72,30,46,-59.45,79,0.0,-24.0,-917.0
19.019,1,0,-110,0,0,0,75,77,73,30,46,-59.54,79,46.0,-25.0,-976.0
19.069,1,0,-110,0,0,0,75,77,73,30,46,-59.54,79,46.0,-25.0,-976.0
19.120,1,0,-110,0,0,0,75,77,73,30,46,-59.54,79,46.0,-25.0,-976.0
19.170,1,0,-110,0,0,0,75,77,73,30,46,-59.52,79,12.0,-19.0,-929.0
19.229,1,1,-110,0,0,0,75,77,73,30,46,-59.63,79,7.0,-19.0,-881.0
19.287,1,1,-110,0,0,0,75,77,73,30,46,-59.63,79,7.0,-19.0,-881.0
19.346,1,1,-110,0,0,0,75,77,73,30,46,-59.63,79,7.0,-19.0,-881.0
19.403,1,1,-110,0,0,0,75,77,72,30,46,-59.59,79,-4.0,-34.0,-915.0
19.462,1,1,-110,0,0,1,75,77,70,30,46,-59.63,79,9.0,-17.0,-927.0
19.519,1,1,-110,0,0,1,75,77,70,30,46,-59.63,79,9.0,-17.0,-927.0
19.577,0,1,-110,0,0,2,75,77,68,30,46,-59.62,79,23.0,-16.0,-916.0
19.628,0,1,-110,0,0,2,75,77,68,30,46,-59.62,79,23.0,-16.0,-916.0
19.686,1,1,-110,0,0,3,75,77,65,30,46,-59.62,79,24.0,-20.0,-972.0
19.737,1,1,-110,0,0,3,75,77,61,20,46,-59.69,79,26.0,-13.0,-946.0
19.795,1,1,-110,0,0,3,75,77,61,20,46,-59.69,79,26.0,-13.0,-946.0
19.853,1,1,-110,0,0,3,75,77,61,20,46,-59.69,79,26.0,-13.0,-946.0
19.911,1,1,-110,0,0,4,75,77,54,20,46,-59.74,79,1.0,-16.0,-967.0
19.961,1,0,-110,0,0,4,75,77,49,10,46,-59.7,80,48.0,-11.0,-972.0
20.021,1,0,-110,0,0,4,75,77,49,10,46,-59.7,80,48.0,-11.0,-972.0
20.085,1,0,-110,0,0,4,75,77,44,10,46,-59.89,80,2.0,-2.0,-1010.0
20.143,1,1,-110,0,0,5,75,77,38,0,46,-59.86,80,3.0,2.0,-986.0
20.202,1,1,-110,0,0,5,75,77,38,0,46,-59.86,80,3.0,2.0,-986.0
20.260,1,1,-110,0,0,5,75,77,38,0,46,-59.86,80,3.0,2.0,-986.0
20.319,1,0,-110,0,0,5,75,77,36,0,46,-59.91,80,-12.0,3.0,-1011.0
20.377,1,0,-110,0,0,4,75,77,30,0,46,-60.02,80,18.0,-7.0,-1042.0
20.436,1,0,-110,0,0,4,75,77,30,0,46,-60.02,80,18.0,-7.0,-1042.0
20.494,1,0,-110,0,0,4,75,77,24,0,46,-59.96,80,17.0,0.0,-995.0
20.551,1,0,-110,0,0,4,75,77,24,0,46,-59.96,80,17.0,0.0,-995.0
20.610,1,0,-110,0,0,4,75,77,20,-10,46,-59.98,80,26.0,-2.0,-1022.0
20.668,2,0,-110,0,0,4,75,77,17,-10,46,-60.1,80,7.0,-7.0,-1066.0
20.718,2,0,-110,0,0,4,75,77,17,-10,46,-60.1,80,7.0,-7.0,-1066.0
20.776,2,0,-110,0,0,4,75,77,17,-10,46,-60.1,80,7.0,-7.0,-1066.0
20.835,2,0,-110,0,0,4,75,77,12,-10,46,-60.42,80,13.0,-18.0,-1010.0
20.894,2,0,-110,0,0,3,75,77,10,-20,46,-61.02,80,26.0,-14.0,-1032.0
20.952,2,0,-110,0,0,3,75,77,10,-20,46,-61.02,80,26.0,-14.0,-1032.0
21.010,2,0,-110,0,0,3,75,77,10,-20,46,-61.43,81,0.0,-16.0,-1048.0
21.067,1,0,-110,0,0,3,75,77,10,-30,46,-62.37,81,24.0,-9.0,-1051.0
21.125,1,0,-110,0,0,3,75,77,10,-30,46,-62.37,81,24.0,-9.0,-1051.0
21.183,1,0,-110,0,0,3,75,77,10,-30,46,-62.37,81,24.0,-9.0,-1051.0
21.242,0,0,-110,0,0,2,75,77,10,-30,46,-63.59,81,32.0,-5.0,-1074.0
21.300,0,-1,-110,0,0,0,75,77,10,-30,46,-62.6,81,23.0,-22.0,-1054.0
21.358,0,-1,-110,0,0,0,75,77,10,-30,46,-62.6,81,23.0,-22.0,-1054.0
21.409,0,1,-111,0,0,0,75,77,10,-30,46,-62.57,81,-106.0,-58.0,-872.0
21.467,0,-1,-110,0,1,0,75,77,10,-30,46,-62.23,81,-6.0,13.0,-890.0
21.526,0,-1,-110,0,1,0,75,77,10,-30,46,-62.23,81,-6.0,13.0,-890.0
21.576,0,-1,-110,0,1,0,75,77,10,-30,46,-62.23,81,-6.0,13.0,-890.0
21.635,0,-2,-110,0,1,0,75,77,10,-30,46,-61.73,81,-28.0,15.0,-911.0
21.694,0,-2,-110,0,1,0,75,77,10,-20,46,-61.42,81,-39.0,39.0,-991.0
21.745,0,-2,-110,0,1,0,75,77,10,-20,46,-61.13,81,-41.0,32.0,-993.0
21.804,0,-2,-110,0,1,0,75,77,10,-20,46,-61.13,81,-41.0,32.0,-993.0
21.862,0,-2,-110,0,1,0,75,77,10,-20,46,-61.13,81,-41.0,32.0,-993.0
21.920,0,-2,-110,0,1,0,74,76,10,-20,46,-61.08,81,-32.0,39.0,-999.0
21.971,0,-2,-110,0,1,0,74,76,10,-20,46,-61.08,81,-32.0,39.0,-999.0
22.022,0,-2,-110,0,1,0,74,76,10,-20,46,-61.08,82,-19.0,44.0,-1002.0
22.079,0,-2,-110,0,1,0,74,76,10,-20,46,-60.94,82,-26.0,51.0,-999.0
22.137,0,-2,-110,0,1,0,74,76,10,-20,46,-61.04,82,-26.0,41.0,-1004.0
22.195,0,-2,-110,0,1,0,74,76,10,-20,46,-61.04,82,-26.0,41.0,-1004.0
