time_elapsed,pitch,roll,yaw,vgx,vgy,vgz,templ,temph,tof,h,bat,baro,time,agx,agy,agz
0.000,-2,2,-6,0,0,0,68,71,10,0,83,27.23,58,-50.0,-33.0,-999.0
0.066,-2,2,-6,0,0,0,68,71,10,0,83,27.23,58,-50.0,-33.0,-999.0
0.128,-2,2,-6,0,0,0,68,71,10,0,83,27.2,58,-52.0,-32.0,-1001.0
0.191,-2,2,-6,0,0,0,68,71,10,0,83,27.2,58,-52.0,-32.0,-1001.0
0.254,-2,2,-6,0,0,0,68,71,10,0,83,27.2,58,-52.0,-32.0,-1001.0
0.316,-2,2,-6,0,0,0,68,71,10,0,83,27.2,58,-48.0,-42.0,-1005.0
0.379,-2,2,-6,0,0,0,68,71,10,0,83,27.2,58,-48.0,-42.0,-1005.0
0.442,-2,2,-6,0,0,0,68,71,10,0,83,27.2,58,-48.0,-42.0,-1005.0
0.493,-2,2,-6,0,0,0,68,71,10,0,83,27.2,58,-48.0,-42.0,-1005.0
0.556,-2,2,-6,0,0,0,68,71,10,0,83,27.2,58,-48.0,-42.0,-1005.0
0.619,-2,0,-7,0,0,0,68,71,10,0,83,27.2,58,36.0,-25.0,-1146.0
0.681,-2,0,-7,0,0,0,68,71,10,0,83,27.2,58,36.0,-25.0,-1146.0
0.744,-2,0,-7,0,0,0,68,71,10,0,83,27.2,58,36.0,-25.0,-1146.0
0.807,1,0,-8,1,-1,-3,68,71,10,0,83,27.2,59,45.0,-64.0,-1265.0
0.870,1,0,-8,1,-1,-3,68,71,10,0,83,27.2,59,45.0,-64.0,-1265.0
0.932,1,0,-8,1,-1,-3,68,71,10,0,83,27.2,59,45.0,-64.0,-1265.0
0.985,4,3,-8,1,-1,-5,68,71,15,0,83,27.48,59,26.0,-46.0,-1165.0
1.048,4,3,-8,1,-1,-6,68,71,24,0,83,27.62,59,16.0,-80.0,-1079.0
1.110,4,3,-8,1,-1,-6,68,71,24,0,83,27.62,59,16.0,-80.0,-1079.0
1.173,4,3,-8,1,-1,-6,68,71,24,0,83,27.62,59,16.0,-80.0,-1079.0
1.236,3,5,-8,0,-1,-6,68,71,40,0,83,27.76,59,5.0,-71.0,-971.0
1.298,3,5,-8,0,-1,-6,68,71,40,0,83,27.76,59,5.0,-71.0,-971.0
1.362,3,5,-8,0,-1,-6,68,71,40,0,83,27.76,59,5.0,-71.0,-971.0
1.424,1,4,-8,0,-1,-5,68,71,58,10,83,28.02,59,-12.0,-78.0,-932.0
1.475,1,4,-8,0,-1,-5,68,71,58,10,83,28.02,59,-12.0,-78.0,-932.0
1.539,1,4,-8,0,-1,-5,68,71,58,10,83,28.02,59,-12.0,-78.0,-932.0
1.602,0,5,-8,0,-1,-4,68,71,66,20,83,28.05,59,-2.0,-68.0,-928.0
1.665,0,5,-8,-1,0,-4,68,71,73,20,83,28.11,59,-27.0,-79.0,-906.0
1.728,0,5,-8,-1,0,-4,68,71,73,20,83,28.11,59,-27.0,-79.0,-906.0
1.790,0,5,-8,-1,0,-4,68,71,73,20,83,28.11,59,-27.0,-79.0,-906.0
1.854,-1,5,-8,-1,0,-2,68,71,85,30,83,28.2,60,3.0,-66.0,-885.0
1.916,-1,5,-8,-1,0,-2,68,71,85,30,83,28.2,60,3.0,-66.0,-885.0
1.979,-1,5,-8,-1,0,-2,68,71,85,30,83,28.2,60,3.0,-66.0,-885.0
2.031,-1,6,-8,-1,0,0,68,71,92,30,83,28.43,60,-48.0,-90.0,-925.0
2.094,-1,6,-8,-1,0,0,68,71,92,30,83,28.43,60,-48.0,-90.0,-925.0
2.157,-1,6,-8,-1,0,0,68,71,92,30,83,28.43,60,-48.0,-90.0,-925.0
2.220,-1,5,-8,-1,0,0,68,71,95,30,83,28.34,60,-40.0,-86.0,-944.0
2.283,-2,6,-8,-1,0,0,68,71,98,30,83,28.31,60,-51.0,-108.0,-956.0
2.346,-2,6,-8,-1,0,0,68,71,98,30,83,28.31,60,-51.0,-108.0,-956.0
2.408,-2,6,-8,-1,0,0,68,71,98,30,83,28.31,60,-51.0,-108.0,-956.0
2.472,-5,6,-8,-1,0,0,70,71,101,40,83,28.48,60,-26.0,-117.0,-919.0
2.524,-5,6,-8,-1,0,0,70,71,101,40,83,28.48,60,-26.0,-117.0,-919.0
2.586,-5,6,-8,-1,0,0,70,71,101,40,83,28.48,60,-26.0,-117.0,-919.0
2.649,-2,7,-8,0,0,1,70,71,103,40,83,28.56,60,-50.0,-102.0,-962.0
2.712,-2,7,-8,0,0,1,70,71,103,40,83,28.56,60,-50.0,-102.0,-962.0
2.775,-2,7,-8,0,0,1,70,71,103,40,83,28.56,60,-50.0,-102.0,-962.0
2.838,-3,7,-8,0,0,1,70,71,104,40,83,28.49,61,-45.0,-112.0,-921.0
2.901,-3,7,-8,0,0,1,70,71,104,40,83,28.43,61,-7.0,-123.0,-946.0
2.964,-3,7,-8,0,0,1,70,71,104,40,83,28.43,61,-7.0,-123.0,-946.0
3.015,-3,7,-8,0,0,1,70,71,104,40,83,28.43,61,-7.0,-123.0,-946.0
3.078,-2,8,-8,0,0,1,70,71,104,40,83,28.44,61,-4.0,-109.0,-939.0
3.141,-2,8,-8,0,0,1,70,71,104,40,83,28.44,61,-4.0,-109.0,-939.0
3.204,-2,8,-8,0,0,1,70,71,104,40,83,28.44,61,-4.0,-109.0,-939.0
3.267,0,7,-8,0,0,1,70,71,102,40,83,28.37,61,-35.0,-75.0,-981.0
3.330,0,7,-8,0,0,1,70,71,102,40,83,28.37,61,-35.0,-75.0,-981.0
3.393,0,7,-8,0,0,1,70,71,102,40,83,28.37,61,-35.0,-75.0,-981.0
3.456,-1,4,-8,0,0,1,70,71,99,40,83,28.39,61,-10.0,-112.0,-1007.0
3.506,-1,4,-8,0,0,1,70,71,99,40,83,28.39,61,-10.0,-112.0,-1007.0
3.571,-1,4,-8,0,0,1,70,71,99,40,83,28.39,61,-10.0,-112.0,-1007.0
3.634,-1,4,-8,0,0,1,70,71,99,40,83,28.39,61,-10.0,-112.0,-1007.0
3.697,-1,5,-8,0,0,1,70,71,96,40,83,28.27,61,-3.0,-124.0,-951.0
3.760,-1,5,-8,0,0,1,70,71,96,40,83,28.27,61,-3.0,-124.0,-951.0
3.823,-1,5,-8,0,0,1,70,71,96,40,83,28.27,61,-3.0,-124.0,-951.0
3.886,-1,6,-8,0,0,2,70,71,92,40,83,28.26,62,-3.0,-112.0,-1053.0
3.949,-1,6,-8,0,0,2,70,71,92,40,83,28.26,62,-3.0,-112.0,-1053.0
4.011,-1,6,-8,0,0,2,70,71,92,40,83,28.26,62,-3.0,-112.0,-1053.0
4.063,-1,5,-8,0,0,1,70,71,87,40,83,28.25,62,-17.0,-116.0,-1011.0
4.126,0,5,-8,0,0,1,70,71,86,40,83,28.3,62,-22.0,-112.0,-1002.0
4.189,0,5,-8,0,0,1,70,71,86,40,83,28.3,62,-22.0,-112.0,-1002.0
4.252,0,5,-8,0,0,1,70,71,86,40,83,28.3,62,-22.0,-112.0,-1002.0
4.315,0,7,-8,0,0,1,70,71,84,40,83,28.43,62,15.0,-107.0,-995.0
4.378,0,7,-9,0,0,1,70,71,82,30,83,28.12,62,71.0,-128.0,-1030.0
4.441,0,7,-8,1,0,1,70,72,81,30,83,28.21,62,51.0,-124.0,-1015.0
4.504,0,7,-8,1,0,1,70,72,81,30,83,28.21,62,51.0,-124.0,-1015.0
4.556,0,7,-8,1,0,1,70,72,81,30,83,28.21,62,51.0,-124.0,-1015.0
4.619,2,6,-8,1,0,0,70,72,80,30,83,28.22,62,39.0,-94.0,-1010.0
4.682,2,5,-8,1,0,0,70,72,79,30,83,28.24,63,25.0,-117.0,-1035.0
4.745,2,5,-8,1,0,0,70,72,79,30,83,28.24,63,25.0,-117.0,-1035.0
4.808,2,4,-8,1,0,0,70,72,78,30,83,28.34,63,39.0,-109.0,-1008.0
4.871,2,4,-8,1,0,0,70,72,78,30,83,28.25,63,8.0,-123.0,-981.0
4.934,2,4,-8,1,0,0,70,72,78,30,83,28.25,63,8.0,-123.0,-981.0
4.997,2,6,-8,0,0,0,70,72,77,30,83,28.12,63,24.0,-94.0,-1048.0
5.049,2,5,-8,0,0,0,70,72,77,30,83,28.19,63,-11.0,-105.0,-1007.0
5.111,2,5,-8,0,0,0,70,72,77,30,83,28.19,63,-11.0,-105.0,-1007.0
5.174,2,5,-8,0,0,0,70,72,77,30,83,28.19,63,-11.0,-105.0,-1007.0
5.238,0,5,-8,0,0,0,70,72,76,30,83,28.19,63,9.0,-133.0,-969.0
5.300,0,6,-8,0,0,0,70,72,75,30,83,28.14,63,-1.0,-104.0,-997.0
5.363,0,6,-8,0,0,0,70,72,75,30,83,28.14,63,-1.0,-104.0,-997.0
5.425,0,6,-8,0,0,0,70,72,74,30,83,28.13,63,-8.0,-121.0,-956.0
5.488,0,6,-8,0,0,0,70,71,74,20,83,28.14,63,-4.0,-73.0,-1008.0
5.538,0,6,-8,0,0,0,70,71,74,20,83,28.14,63,-4.0,-73.0,-1008.0
5.602,-1,6,-8,0,0,0,70,71,74,20,83,28.09,63,-3.0,-114.0,-1024.0
5.665,-2,5,-8,0,0,0,70,71,73,20,83,28.08,64,-4.0,-101.0,-999.0
5.728,-2,5,-8,0,0,0,70,71,73,20,83,28.08,64,-4.0,-101.0,-999.0
5.790,-2,5,-8,0,0,0,70,71,73,20,83,28.08,64,-4.0,-101.0,-999.0
5.853,-1,6,-8,0,0,0,70,71,73,20,83,28.07,64,-45.0,-123.0,-1017.0
5.916,-1,6,-8,0,0,0,70,71,73,20,83,28.07,64,-45.0,-123.0,-1017.0
5.979,-1,6,-8,0,0,0,70,71,73,20,83,28.07,64,-45.0,-123.0,-1017.0
6.042,-1,7,-8,0,0,0,70,71,73,20,83,27.96,64,-25.0,-109.0,-1061.0
6.093,-2,6,-8,-1,0,0,70,71,72,20,83,28.04,64,-62.0,-171.0,-1006.0
6.156,-2,6,-8,-1,0,0,70,71,72,20,83,28.04,64,-62.0,-171.0,-1006.0
6.219,-3,7,-8,-1,0,0,70,71,73,20,83,28.13,64,-98.0,-144.0,-916.0
6.281,-5,8,-8,-1,0,0,70,71,73,20,83,28.07,64,-99.0,-157.0,-1039.0
6.344,-5,8,-8,-1,0,0,70,71,73,20,83,28.07,64,-99.0,-157.0,-1039.0
6.407,-5,8,-8,-1,0,0,70,71,73,20,83,28.07,64,-99.0,-157.0,-1039.0
6.470,-6,10,-9,0,0,0,69,72,76,20,83,28.25,64,-92.0,-159.0,-946.0
6.532,-6,10,-9,0,0,0,69,72,76,20,83,28.25,64,-92.0,-159.0,-946.0
6.584,-6,10,-9,0,0,0,69,72,76,20,83,28.25,64,-92.0,-159.0,-946.0
6.647,-3,9,-8,0,0,0,69,72,75,20,83,28.17,64,-32.0,-153.0,-997.0
6.710,-2,9,-8,0,0,0,69,72,75,20,83,28.1,65,-71.0,-169.0,-975.0
6.772,-2,9,-8,0,0,0,69,72,75,20,83,28.1,65,-71.0,-169.0,-975.0
6.835,-3,9,-8,0,0,0,69,72,76,20,83,28.01,65,0.0,-189.0,-923.0
6.898,-2,11,-8,0,0,0,69,72,76,20,83,28.19,65,-98.0,-185.0,-961.0
6.960,-2,11,-8,0,0,0,69,72,76,20,83,28.19,65,-98.0,-185.0,-961.0
7.023,-2,11,-8,0,0,0,69,72,76,20,83,28.58,65,-75.0,-169.0,-1006.0
7.075,-2,11,-8,0,0,0,69,72,76,20,83,28.58,65,-75.0,-169.0,-1006.0
7.138,-2,9,-8,0,0,0,69,72,75,20,83,28.79,65,-61.0,-168.0,-1048.0
7.200,-2,9,-8,0,0,0,69,72,75,20,83,28.79,65,-61.0,-168.0,-1048.0
7.263,-4,8,-9,0,0,0,69,72,76,20,83,28.12,65,24.0,-180.0,-1089.0
7.326,-3,11,-8,0,0,0,69,72,78,20,83,27.95,65,-81.0,-143.0,-1002.0
7.388,-3,11,-8,0,0,0,69,72,78,20,83,27.95,65,-81.0,-143.0,-1002.0
7.452,-2,9,-8,0,0,0,69,72,77,30,83,27.77,65,-44.0,-135.0,-1023.0
7.514,-6,8,-8,0,0,0,70,72,78,30,83,28.03,65,-10.0,-189.0,-889.0
7.565,-6,8,-8,0,0,0,70,72,78,30,83,28.03,65,-10.0,-189.0,-889.0
7.629,-6,8,-8,0,0,0,70,72,78,30,83,28.03,65,-10.0,-189.0,-889.0
7.691,-3,7,-8,0,0,0,70,72,78,30,83,28.19,66,-108.0,-189.0,-964.0
7.754,-3,7,-8,0,0,0,70,72,78,30,83,28.19,66,-108.0,-189.0,-964.0
7.817,-4,7,-8,0,0,0,70,72,79,30,83,28.07,66,-92.0,-155.0,-993.0
7.879,-4,7,-8,0,0,0,70,72,79,30,83,28.07,66,-92.0,-155.0,-993.0
7.943,-4,7,-8,0,0,0,70,72,79,30,83,28.07,66,-92.0,-155.0,-993.0
8.005,-6,9,-8,0,0,0,70,72,82,30,83,28.04,66,-89.0,-141.0,-837.0
8.072,-6,9,-8,0,0,0,70,72,82,30,83,28.04,66,-89.0,-141.0,-837.0
8.136,-6,9,-8,0,0,0,70,72,82,30,83,28.04,66,-89.0,-141.0,-837.0
8.198,-6,8,-8,0,0,0,70,72,82,30,83,27.95,66,-75.0,-135.0,-963.0
8.261,-4,7,-8,0,0,0,70,72,81,30,83,27.82,66,-38.0,-133.0,-998.0
8.324,-4,7,-8,0,0,0,70,72,81,30,83,27.82,66,-38.0,-133.0,-998.0
8.387,-3,7,-8,1,0,0,70,72,80,30,83,27.97,66,-3.0,-152.0,-1032.0
8.450,-3,7,-8,1,0,0,70,72,80,30,83,27.97,66,-3.0,-152.0,-1032.0
8.512,-2,7,-8,1,0,0,70,73,80,30,83,27.83,66,-30.0,-124.0,-1014.0
8.575,-1,7,-8,1,0,0,70,73,80,30,83,27.87,66,-57.0,-136.0,-1006.0
8.627,-1,7,-8,1,0,0,70,73,80,30,83,27.87,66,-57.0,-136.0,-1006.0
8.690,-3,6,-8,0,0,0,70,73,80,30,83,27.78,67,1.0,-149.0,-965.0
8.752,-3,6,-8,0,0,0,70,73,80,30,83,27.78,67,1.0,-149.0,-965.0
8.815,-2,4,-8,1,0,0,70,73,80,30,83,28.0,67,2.0,-170.0,-964.0
8.878,-1,4,-8,1,0,0,70,73,80,30,83,28.07,67,-25.0,-159.0,-960.0
8.942,-1,4,-8,1,0,0,70,73,80,30,83,28.07,67,-25.0,-159.0,-960.0
9.004,-1,3,-7,0,-1,0,70,73,80,30,83,27.79,67,-70.0,-147.0,-1019.0
9.067,-1,3,-7,0,-1,0,70,73,80,30,83,27.79,67,-70.0,-147.0,-1019.0
9.119,0,5,-7,0,-2,0,70,73,79,30,83,27.93,67,-18.0,-147.0,-952.0
9.182,0,6,-8,0,-2,0,70,73,79,30,83,27.94,67,-19.0,-138.0,-987.0
9.245,0,6,-8,0,-2,0,70,73,79,30,83,27.94,67,-19.0,-138.0,-987.0
9.308,0,5,-8,0,-3,0,70,73,79,30,83,27.97,67,-8.0,-135.0,-969.0
9.371,0,5,-8,0,-3,0,70,73,79,30,83,27.97,67,-8.0,-135.0,-969.0
9.434,0,6,-8,0,-3,0,70,73,79,30,83,27.93,67,10.0,-141.0,-978.0
9.497,0,5,-8,0,-3,0,71,73,79,30,83,27.84,67,-33.0,-136.0,-960.0
9.560,0,5,-8,0,-3,0,71,73,79,30,83,27.84,67,-33.0,-136.0,-960.0
9.611,0,5,-8,0,-3,0,71,73,79,30,83,27.88,67,-24.0,-127.0,-967.0
9.674,0,5,-8,0,-3,0,71,73,79,30,83,27.88,67,-24.0,-127.0,-967.0
9.737,0,4,-8,0,-4,0,71,73,79,30,83,27.87,68,18.0,-145.0,-1016.0
9.800,0,5,-8,0,-4,0,71,73,78,30,83,28.07,68,29.0,-139.0,-984.0
9.863,0,5,-8,0,-4,0,71,73,78,30,83,28.07,68,29.0,-139.0,-984.0
9.926,1,4,-7,0,-5,0,71,73,78,30,83,27.83,68,-14.0,-139.0,-1035.0
9.989,1,4,-7,0,-5,0,71,73,78,30,83,27.83,68,-14.0,-139.0,-1035.0
10.052,0,5,-7,0,-5,0,71,73,79,30,83,27.91,68,-26.0,-118.0,-988.0
10.103,0,6,-8,0,-5,0,71,73,79,30,83,27.9,68,-36.0,-106.0,-924.0
10.167,0,6,-8,0,-5,0,71,73,79,30,83,27.9,68,-36.0,-106.0,-924.0
10.230,-1,5,-8,0,-5,0,71,73,79,30,83,27.86,68,-5.0,-132.0,-960.0
10.293,0,5,-8,0,-6,0,71,73,79,30,83,27.98,68,29.0,-113.0,-1001.0
10.356,0,5,-8,0,-6,0,71,73,79,30,83,27.98,68,29.0,-113.0,-1001.0
10.418,0,5,-8,0,-6,0,71,73,80,30,83,27.88,68,-10.0,-107.0,-1044.0
10.481,0,5,-8,0,-6,0,71,73,80,30,83,27.88,68,-10.0,-107.0,-1044.0
10.544,0,5,-8,0,-6,0,70,72,80,30,83,27.89,68,-9.0,-105.0,-952.0
10.606,0,6,-8,-1,-5,0,70,72,79,30,83,27.84,68,12.0,-64.0,-1009.0
10.657,0,6,-8,-1,-5,0,70,72,79,30,83,27.84,68,12.0,-64.0,-1009.0
10.720,0,6,-8,0,-5,0,70,72,79,30,83,27.86,69,27.0,-52.0,-959.0
10.783,0,6,-8,0,-5,0,70,72,79,30,83,27.86,69,27.0,-52.0,-959.0
10.846,0,6,-8,0,-4,0,70,72,79,30,83,27.96,69,46.0,-32.0,-1060.0
10.909,0,6,-9,0,-3,0,70,72,80,30,83,27.77,69,32.0,-47.0,-1032.0
10.973,0,6,-9,0,-3,0,70,72,80,30,83,27.77,69,32.0,-47.0,-1032.0
11.035,0,6,-9,0,-3,0,70,72,80,30,83,27.77,69,32.0,-47.0,-1032.0
11.098,0,6,-9,0,-3,0,70,72,80,30,83,27.77,69,32.0,-47.0,-1032.0
11.149,0,5,-8,0,-2,0,70,72,84,30,83,27.92,69,42.0,-24.0,-994.0
11.212,0,4,-9,1,-2,0,70,72,84,30,83,27.85,69,31.0,-66.0,-994.0
11.274,0,4,-9,1,-2,0,70,72,84,30,83,27.85,69,31.0,-66.0,-994.0
11.336,0,4,-9,1,-1,0,70,72,84,30,83,27.79,69,30.0,-29.0,-979.0
11.399,0,4,-9,1,-1,0,70,72,84,30,83,27.79,69,30.0,-29.0,-979.0
11.462,-2,9,-15,2,2,1,70,72,84,30,83,27.74,69,82.0,-22.0,-946.0
11.524,-2,9,-15,2,2,1,70,72,84,30,83,27.74,69,82.0,-22.0,-946.0
11.588,1,6,-24,3,3,0,70,72,80,30,83,27.76,69,75.0,-110.0,-1039.0
11.640,3,1,-23,3,3,0,70,72,76,30,83,27.8,69,72.0,-132.0,-1099.0
11.702,3,1,-23,3,3,0,70,72,76,30,83,27.8,69,72.0,-132.0,-1099.0
11.765,3,3,-13,3,3,0,70,72,76,30,83,27.74,70,51.0,-97.0,-970.0
11.828,3,5,-7,2,3,0,70,72,76,30,83,27.97,70,2.0,-78.0,-975.0
11.891,3,5,-7,2,3,0,70,72,76,30,83,27.97,70,2.0,-78.0,-975.0
11.954,2,3,-7,2,2,0,70,72,76,30,83,27.98,70,9.0,-123.0,-1026.0
12.016,2,4,-7,1,2,0,70,72,76,30,83,27.98,70,12.0,-124.0,-1020.0
12.079,2,4,-7,1,2,0,70,72,76,30,83,27.98,70,12.0,-124.0,-1020.0
12.130,2,4,-7,1,2,0,70,72,76,30,83,27.98,70,12.0,-124.0,-1020.0
12.193,1,5,-7,0,2,0,70,72,76,30,82,27.95,70,29.0,-105.0,-1049.0
12.256,1,5,-7,0,2,0,70,72,76,30,82,27.95,70,29.0,-105.0,-1049.0
12.319,1,5,-7,0,2,0,70,72,76,30,82,27.95,70,29.0,-105.0,-1049.0
12.382,1,5,-7,0,2,0,70,72,77,30,82,27.91,70,24.0,-92.0,-1000.0
12.445,1,5,-7,0,2,0,70,72,77,30,82,27.91,70,24.0,-92.0,-1000.0
12.507,1,5,-7,0,1,0,70,72,76,30,82,27.89,70,-4.0,-98.0,-994.0
12.570,1,5,-7,0,1,0,70,72,76,30,82,27.89,70,-4.0,-98.0,-994.0
12.633,1,5,-7,0,1,0,70,72,76,30,82,27.89,70,-4.0,-98.0,-994.0
12.684,1,5,-7,0,1,0,70,72,77,30,82,27.87,70,0.0,-92.0,-1030.0
12.746,0,5,-7,0,1,0,70,72,76,30,82,27.89,71,2.0,-102.0,-969.0
12.808,0,5,-7,0,1,0,70,72,76,30,82,27.89,71,2.0,-102.0,-969.0
12.871,1,4,-7,0,1,0,70,72,76,30,82,27.97,71,7.0,-118.0,-1015.0
12.934,0,5,-8,0,1,0,70,72,76,30,82,27.98,71,25.0,-120.0,-973.0
12.997,0,5,-8,0,1,0,70,72,76,30,82,27.98,71,25.0,-120.0,-973.0
13.060,0,5,-8,0,1,0,70,72,76,30,82,27.98,71,25.0,-120.0,-973.0
13.123,1,4,-7,0,0,0,70,72,76,30,82,27.94,71,-35.0,-125.0,-984.0
13.175,1,4,-7,0,0,0,70,72,76,30,82,27.94,71,-35.0,-125.0,-984.0
13.238,1,4,-7,0,0,0,70,72,76,30,82,27.94,71,-35.0,-125.0,-984.0
13.300,0,5,-7,-1,0,0,70,72,75,30,82,27.82,71,-27.0,-99.0,-990.0
13.363,0,5,-7,-1,0,0,70,72,75,30,82,27.82,71,-27.0,-99.0,-990.0
13.425,0,5,-7,-1,0,0,70,72,75,30,82,27.82,71,-27.0,-99.0,-990.0
13.488,0,5,-8,-1,0,0,70,72,75,30,82,27.99,71,-18.0,-90.0,-968.0
13.552,-1,5,-8,-1,0,0,71,73,74,30,82,27.94,71,-45.0,-73.0,-1007.0
13.614,-1,5,-8,-1,0,0,71,73,74,30,82,27.94,71,-45.0,-73.0,-1007.0
13.667,-1,5,-8,-1,0,0,71,73,74,30,82,27.94,71,-45.0,-73.0,-1007.0
13.729,0,4,-8,-1,0,0,71,73,74,20,82,27.96,72,17.0,-133.0,-1043.0
13.792,0,4,-8,-1,0,0,71,73,74,20,82,27.96,72,17.0,-133.0,-1043.0
13.856,0,4,-8,-1,0,0,71,73,74,20,82,27.96,72,17.0,-133.0,-1043.0
13.918,-1,5,-8,0,0,0,71,73,73,20,82,27.87,72,52.0,-112.0,-984.0
13.982,-1,5,-8,0,0,0,71,73,73,20,82,27.87,72,52.0,-112.0,-984.0
14.045,-1,5,-8,0,0,0,71,73,73,20,82,27.87,72,52.0,-112.0,-984.0
14.108,0,5,-8,0,0,0,71,73,74,20,82,27.91,72,53.0,-96.0,-1017.0
14.159,0,5,-8,1,0,0,71,73,74,20,81,27.78,72,83.0,-80.0,-1022.0
14.222,0,5,-8,1,0,0,71,73,74,20,81,27.78,72,83.0,-80.0,-1022.0
14.285,0,5,-8,1,0,0,71,73,74,20,81,27.78,72,83.0,-80.0,-1022.0
14.348,1,4,-8,0,0,0,71,73,75,20,81,27.83,72,-7.0,-72.0,-996.0
14.411,1,4,-8,0,0,0,71,73,75,20,81,27.83,72,-7.0,-72.0,-996.0
14.474,1,5,-8,0,0,0,71,73,76,30,81,27.98,72,32.0,-84.0,-981.0
14.536,1,5,-8,0,0,0,71,73,76,30,81,27.98,72,32.0,-84.0,-981.0
14.599,1,4,-8,0,0,0,70,73,75,30,81,28.2,72,48.0,-145.0,-987.0
14.662,0,4,-8,0,0,0,70,73,75,30,81,28.02,72,-4.0,-179.0,-1070.0
14.714,0,4,-8,0,0,0,70,73,75,30,81,28.02,72,-4.0,-179.0,-1070.0
14.778,0,4,-8,0,0,0,70,73,75,30,81,28.02,72,-4.0,-179.0,-1070.0
14.840,0,5,-8,0,-1,0,70,73,75,30,81,28.16,73,-42.0,-159.0,-1087.0
14.904,0,5,-8,0,-1,0,70,73,75,30,81,28.16,73,-42.0,-159.0,-1087.0
14.967,0,5,-8,0,-1,0,70,73,75,30,81,28.16,73,-42.0,-159.0,-1087.0
15.030,0,3,-8,-1,-2,0,70,73,76,30,81,27.93,73,-44.0,-151.0,-1001.0
15.093,0,5,-8,-1,-2,0,70,73,76,30,81,27.94,73,-57.0,-96.0,-864.0
15.155,0,5,-8,-1,-2,0,70,73,76,30,81,27.94,73,-57.0,-96.0,-864.0
15.207,0,5,-8,-1,-2,0,70,73,76,30,81,27.94,73,-57.0,-96.0,-864.0
15.270,-1,5,-8,0,-3,0,70,73,75,30,81,27.83,73,49.0,-106.0,-1021.0
15.332,-1,5,-8,0,-3,0,70,73,75,30,81,27.83,73,49.0,-106.0,-1021.0
15.395,-1,5,-8,0,-3,0,70,73,75,30,81,27.83,73,49.0,-106.0,-1021.0
15.458,1,5,-8,0,-3,0,70,73,76,30,81,27.59,73,29.0,-94.0,-1030.0
15.521,1,5,-8,0,-3,0,70,73,76,30,81,27.59,73,29.0,-94.0,-1030.0
15.583,1,5,-8,0,-3,0,70,73,76,30,81,27.59,73,29.0,-94.0,-1030.0
15.646,0,7,-8,0,-2,0,70,73,77,30,81,27.81,73,-13.0,-13.0,-997.0
15.698,0,5,-8,0,-1,0,70,73,78,30,81,27.71,74,3.0,-33.0,-1026.0
15.761,0,5,-8,0,-1,0,70,73,78,30,81,27.71,74,3.0,-33.0,-1026.0
15.824,0,5,-8,0,-1,0,70,73,78,30,81,27.71,74,3.0,-33.0,-1026.0
15.886,0,6,-8,0,0,0,70,73,78,30,81,27.81,74,16.0,-20.0,-1006.0
15.949,0,5,-7,0,0,0,70,73,79,30,81,27.85,74,-17.0,-38.0,-995.0
16.012,0,5,-7,0,0,0,70,73,79,30,81,27.85,74,-17.0,-38.0,-995.0
16.075,0,5,-8,0,0,0,70,73,79,30,81,27.79,74,1.0,-57.0,-974.0
16.138,0,4,-8,0,0,0,70,73,79,30,81,27.75,74,10.0,-63.0,-999.0
16.188,0,4,-8,0,0,0,70,73,79,30,81,27.75,74,10.0,-63.0,-999.0
16.251,0,5,-8,0,0,0,70,73,79,30,81,27.89,74,23.0,-35.0,-976.0
16.314,0,4,-8,0,1,0,70,73,78,30,81,27.93,74,23.0,-78.0,-1004.0
16.377,0,4,-8,0,1,0,70,73,78,30,81,27.93,74,23.0,-78.0,-1004.0
16.440,0,4,-8,0,1,0,70,73,78,30,81,27.93,74,23.0,-78.0,-1004.0
16.502,0,5,-8,0,1,0,70,73,77,30,81,27.88,74,-9.0,-59.0,-984.0
16.565,0,5,-8,0,1,0,69,73,76,30,81,27.83,74,-3.0,-44.0,-999.0
16.628,0,5,-8,0,1,0,69,73,76,30,81,27.83,74,-3.0,-44.0,-999.0
16.690,0,5,-8,0,2,0,69,73,75,30,81,27.86,74,1.0,-44.0,-1044.0
16.742,0,5,-8,0,2,0,69,73,75,30,81,27.96,75,3.0,-51.0,-1006.0
16.804,0,5,-8,0,2,0,69,73,75,30,81,27.96,75,3.0,-51.0,-1006.0
16.868,0,5,-7,0,2,0,69,73,75,30,81,28.02,75,-1.0,-63.0,-1008.0
16.930,0,4,-7,0,3,0,69,73,75,30,81,28.0,75,-75.0,-74.0,-1023.0
16.993,0,4,-7,0,3,0,69,73,75,30,81,28.0,75,-75.0,-74.0,-1023.0
17.056,0,4,-7,0,3,0,69,73,75,30,81,28.0,75,-75.0,-74.0,-1023.0
17.118,0,5,-8,0,3,0,69,73,75,30,81,28.13,75,-13.0,-103.0,-967.0
17.181,-1,5,-8,0,3,0,69,73,74,30,81,28.03,75,37.0,-74.0,-950.0
17.244,-1,5,-8,0,3,0,69,73,74,30,81,28.03,75,37.0,-74.0,-950.0
17.307,-2,6,-9,0,3,0,69,73,74,30,81,28.01,75,103.0,-71.0,-1045.0
17.370,-1,5,-8,0,3,0,69,73,73,30,81,28.05,75,31.0,-60.0,-1007.0
17.433,-1,5,-8,0,3,0,69,73,73,30,81,28.05,75,31.0,-60.0,-1007.0
17.496,0,5,-8,1,3,0,69,73,73,20,81,28.12,75,-56.0,-101.0,-981.0
17.559,1,4,-8,1,3,0,71,73,73,20,81,28.07,75,-1.0,-96.0,-1013.0
17.622,1,4,-8,1,3,0,71,73,73,20,81,28.07,75,-1.0,-96.0,-1013.0
17.685,0,4,-8,0,3,0,71,73,73,20,81,28.14,75,-18.0,-108.0,-994.0
17.736,0,4,-8,0,3,0,71,73,73,20,81,28.14,75,-18.0,-108.0,-994.0
17.799,0,5,-8,0,3,0,71,73,74,20,81,28.03,76,-6.0,-88.0,-1043.0
17.863,0,5,-8,0,3,0,71,73,74,20,81,28.03,76,-6.0,-88.0,-1043.0
17.925,-1,5,-8,0,3,0,71,73,74,20,81,28.12,76,-14.0,-104.0,-972.0
17.988,-1,5,-8,0,3,0,71,73,74,20,81,28.06,76,-53.0,-63.0,-984.0
18.051,-1,5,-8,0,3,0,71,73,74,20,81,28.06,76,-53.0,-63.0,-984.0
18.114,-1,4,-8,0,3,0,71,73,74,20,81,28.08,76,1.0,-70.0,-1020.0
18.176,-1,4,-8,0,3,0,71,73,75,20,81,28.18,76,-35.0,-89.0,-983.0
18.227,-1,4,-8,0,3,0,71,73,75,20,81,28.18,76,-35.0,-89.0,-983.0
18.290,-1,3,-8,0,3,0,71,73,75,30,81,28.09,76,-42.0,-95.0,-1014.0
18.352,-1,4,-8,0,3,0,71,73,75,30,81,28.04,76,-44.0,-72.0,-993.0
18.415,-1,4,-8,0,3,0,71,73,75,30,81,28.04,76,-44.0,-72.0,-993.0
18.478,-2,3,-8,0,3,0,71,73,75,30,81,27.92,76,-8.0,-86.0,-994.0
18.540,-2,3,-8,0,3,0,71,73,75,30,81,27.92,76,-8.0,-86.0,-994.0
18.604,-2,2,-8,0,2,0,71,73,75,30,81,28.04,76,-32.0,-75.0,-992.0
18.666,-2,2,-8,0,2,0,71,73,75,30,81,28.05,76,-30.0,-81.0,-1005.0
18.717,-2,2,-8,0,2,0,71,73,75,30,81,28.05,76,-30.0,-81.0,-1005.0
18.781,-1,2,-8,0,2,0,71,73,75,30,81,28.03,77,-60.0,-87.0,-965.0
18.844,-1,2,-8,0,2,0,71,73,75,30,81,28.03,77,-60.0,-87.0,-965.0
18.907,-2,2,-8,0,1,0,71,73,76,30,81,28.03,77,-5.0,-84.0,-1001.0
18.969,-1,3,-8,0,1,0,71,73,76,30,81,28.04,77,-53.0,-71.0,-983.0
19.032,-1,3,-8,0,1,0,71,73,76,30,81,28.04,77,-53.0,-71.0,-983.0
19.095,-1,3,-8,0,1,0,71,73,76,30,81,28.04,77,-53.0,-71.0,-983.0
19.157,-2,3,-8,0,1,0,71,73,76,30,81,27.97,77,-46.0,-73.0,-956.0
19.220,-2,3,-8,0,1,0,71,73,76,30,80,28.17,77,10.0,-101.0,-946.0
19.271,-2,3,-8,0,1,0,71,73,76,30,80,28.17,77,10.0,-101.0,-946.0
19.334,-2,3,-8,0,1,0,71,73,76,30,80,28.17,77,10.0,-101.0,-946.0
19.397,-2,3,-8,0,1,0,71,73,76,30,80,28.17,77,10.0,-101.0,-946.0
19.459,-1,4,-8,1,0,0,71,73,75,30,80,28.06,77,24.0,-101.0,-948.0
19.521,-1,4,-8,1,0,0,71,73,75,30,80,28.06,77,24.0,-101.0,-948.0
19.584,-1,4,-8,1,0,0,71,73,75,30,80,28.06,77,24.0,-101.0,-948.0
19.647,2,4,-8,1,0,2,70,73,71,20,80,28.03,78,9.0,-109.0,-940.0
19.710,2,4,-8,1,0,2,70,73,71,20,80,28.03,78,9.0,-109.0,-940.0
19.761,2,4,-8,1,0,2,70,73,71,20,80,28.03,78,9.0,-109.0,-940.0
19.823,1,4,-8,0,-1,3,70,73,68,20,80,27.9,78,21.0,-119.0,-931.0
19.886,0,4,-8,0,-1,4,70,73,64,10,80,27.92,78,-20.0,-112.0,-935.0
19.949,0,4,-8,0,-1,4,70,73,64,10,80,27.92,78,-20.0,-112.0,-935.0
20.011,0,4,-8,0,-1,4,70,73,64,10,80,27.92,78,-20.0,-112.0,-935.0
20.074,0,4,-8,0,-1,4,70,73,55,10,80,27.79,78,17.0,-77.0,-981.0
20.137,0,4,-8,0,-1,4,70,73,55,10,80,27.79,78,17.0,-77.0,-981.0
20.200,0,4,-8,0,-1,4,70,73,55,10,80,27.79,78,17.0,-77.0,-981.0
20.251,0,3,-8,0,-1,4,70,73,46,0,80,27.63,78,40.0,-91.0,-994.0
20.314,0,3,-8,0,-1,4,70,73,46,0,80,27.63,78,40.0,-91.0,-994.0
20.377,0,3,-8,0,-1,4,70,73,46,0,80,27.63,78,40.0,-91.0,-994.0
20.440,0,3,-8,0,-1,4,70,73,41,0,80,27.63,78,15.0,-91.0,-989.0
20.503,1,3,-8,0,-1,4,70,73,36,0,80,27.55,78,32.0,-80.0,-1003.0
20.566,1,3,-8,0,-1,4,70,73,36,0,80,27.55,78,32.0,-80.0,-1003.0
20.629,1,3,-8,0,-1,4,70,73,36,0,80,27.55,78,32.0,-80.0,-1003.0
20.691,0,2,-8,1,-2,4,70,73,29,-10,80,27.46,79,13.0,-81.0,-975.0
20.742,0,2,-8,1,-2,4,70,73,29,-10,80,27.46,79,13.0,-81.0,-975.0
20.806,0,3,-8,1,-2,4,70,73,24,-20,80,27.41,79,49.0,-74.0,-1020.0
20.869,1,3,-8,1,-2,4,70,73,20,-20,80,27.2,79,59.0,-62.0,-1017.0
20.932,1,3,-8,1,-2,4,70,73,20,-20,80,27.2,79,59.0,-62.0,-1017.0
20.994,1,3,-8,1,-3,4,70,73,16,-30,80,27.13,79,30.0,-62.0,-990.0
21.056,1,3,-8,1,-3,4,70,73,16,-30,80,27.13,79,30.0,-62.0,-990.0
21.119,1,3,-8,1,-3,4,70,73,13,-30,80,26.8,79,40.0,-62.0,-1005.0
21.182,2,2,-8,1,-3,3,70,73,10,-30,80,26.45,79,37.0,-58.0,-1031.0
21.245,2,2,-8,1,-3,3,70,73,10,-30,80,26.45,79,37.0,-58.0,-1031.0
21.296,2,2,-8,1,-3,3,70,73,10,-30,80,26.45,79,37.0,-58.0,-1031.0
21.358,2,2,-8,1,-3,3,70,73,10,-30,80,26.45,79,37.0,-58.0,-1031.0
21.421,1,2,-8,1,-3,2,70,73,10,-40,80,24.58,79,5.0,-49.0,-1023.0
21.484,-2,1,-8,1,-2,1,70,73,10,-40,80,23.62,79,30.0,-31.0,-1074.0
21.546,-2,1,-8,1,-2,1,70,73,10,-40,80,23.62,79,30.0,-31.0,-1074.0
21.609,1,3,-6,1,-1,0,70,73,10,-40,80,24.93,79,15.0,-28.0,-1056.0
21.672,-1,1,-8,0,0,0,70,73,10,-40,80,24.62,80,-217.0,208.0,-1493.0
21.735,-1,1,-8,0,0,0,70,73,10,-40,80,24.62,80,-217.0,208.0,-1493.0
21.787,-2,0,-9,0,0,0,70,73,10,-40,80,24.97,80,18.0,0.0,-781.0
21.850,-2,0,-9,0,0,0,70,73,10,-40,80,24.97,80,18.0,0.0,-781.0
21.912,-2,1,-10,0,0,0,70,73,10,-40,80,25.34,80,-202.0,205.0,-1363.0
21.975,-2,1,-10,0,0,0,70,73,10,-30,80,25.85,80,-121.0,4.0,-961.0
22.038,-2,1,-10,0,0,0,70,73,10,-30,80,25.85,80,-121.0,4.0,-961.0
22.101,-2,0,-10,0,0,0,70,73,10,-30,80,26.07,80,-126.0,27.0,-1013.0
22.163,-2,0,-10,0,0,0,70,73,10,-30,80,26.07,80,-126.0,27.0,-1013.0
22.226,-2,0,-10,0,0,0,70,73,10,-30,80,26.22,80,-34.0,-14.0,-1014.0
22.277,-2,0,-10,0,0,0,70,73,10,-30,80,26.19,80,-39.0,-26.0,-991.0
22.339,-2,0,-10,0,0,0,70,73,10,-30,80,26.19,80,-39.0,-26.0,-991.0
22.402,-2,0,-10,0,0,0,70,73,10,-30,80,26.31,80,-57.0,13.0,-987.0
22.465,-2,0,-10,0,0,0,70,73,10,-30,80,26.31,80,-57.0,13.0,-987.0
