time_elapsed,pitch,roll,yaw,vgx,vgy,vgz,templ,temph,tof,h,bat,baro,time,agx,agy,agz
0.000,-2,6,60,0,0,0,48,51,90,70,73,-70.38,6,-157.0,195.0,-920.0
0.063,-2,6,60,0,0,0,48,51,90,70,73,-70.38,6,-157.0,195.0,-920.0
0.126,-2,7,58,0,0,0,48,51,91,70,73,-70.43,6,-62.0,131.0,-1001.0
0.188,-2,7,58,0,0,0,48,51,91,70,73,-70.43,6,-62.0,131.0,-1001.0
0.251,-2,6,54,0,0,0,48,51,91,70,72,-70.5,6,-128.0,58.0,-1089.0
0.314,-2,3,50,0,0,0,48,51,90,70,72,-70.43,6,-71.0,-220.0,-941.0
0.366,-2,3,50,0,0,0,48,51,90,70,72,-70.43,6,-71.0,-220.0,-941.0
0.429,-3,1,50,0,0,0,48,51,90,70,72,-70.52,6,-116.0,-86.0,-1054.0
0.492,-3,1,50,0,0,0,48,51,90,70,72,-70.52,6,-116.0,-86.0,-1054.0
0.555,-3,3,50,0,0,0,48,51,90,70,72,-70.46,7,-187.0,213.0,-854.0
0.618,-3,3,48,0,0,0,48,51,89,70,72,-70.45,7,-85.0,21.0,-1047.0
0.680,-3,3,48,0,0,0,48,51,89,70,72,-70.45,7,-85.0,21.0,-1047.0
0.743,-3,2,44,0,0,0,48,51,88,70,72,-70.44,7,50.0,5.0,-1127.0
0.806,-3,2,44,0,0,0,48,51,88,70,72,-70.44,7,50.0,5.0,-1127.0
0.859,-4,4,43,0,0,0,48,51,89,70,72,-70.5,7,-54.0,-200.0,-1004.0
0.922,-4,4,43,0,0,0,48,51,90,70,72,-70.47,7,24.0,-206.0,-961.0
0.985,-4,4,43,0,0,0,48,51,90,70,72,-70.47,7,24.0,-206.0,-961.0
1.048,-3,3,41,0,0,0,48,51,89,70,72,-70.46,7,-90.0,-99.0,-1014.0
1.111,-3,3,41,0,0,0,48,51,89,70,72,-70.46,7,-90.0,-99.0,-1014.0
1.173,-2,2,40,0,0,0,49,51,90,70,72,-70.48,7,-27.0,-287.0,-862.0
1.236,-1,2,38,0,0,1,49,51,87,70,72,-70.53,7,-120.0,-425.0,-805.0
1.300,-1,2,38,0,0,1,49,51,87,70,72,-70.53,7,-120.0,-425.0,-805.0
1.350,-2,5,40,0,0,1,49,51,86,70,72,-70.6,7,-21.0,-415.0,-810.0
1.414,-2,5,40,0,0,1,49,51,86,70,72,-70.6,7,-21.0,-415.0,-810.0
1.477,-2,7,42,0,0,2,49,51,84,70,72,-70.63,7,-53.0,-1.0,-854.0
1.540,-2,7,42,0,0,2,49,51,81,70,72,-70.63,8,-198.0,-77.0,-947.0
1.603,-2,7,42,0,0,2,49,51,81,70,72,-70.63,8,-198.0,-77.0,-947.0
1.665,-3,6,43,0,0,2,49,51,79,70,72,-70.72,8,-49.0,-41.0,-979.0
1.729,-3,6,43,0,0,2,49,51,79,70,72,-70.72,8,-49.0,-41.0,-979.0
1.791,-4,5,43,0,0,1,49,51,77,60,72,-70.75,8,-58.0,-189.0,-1105.0
1.854,-5,4,44,0,0,0,49,51,75,60,72,-70.67,8,-57.0,-172.0,-1084.0
1.906,-5,4,44,0,0,0,49,51,75,60,72,-70.67,8,-57.0,-172.0,-1084.0
1.969,-5,4,44,0,0,0,49,51,74,60,72,-70.73,8,-12.0,-184.0,-1062.0
2.032,-5,4,44,0,0,0,49,51,74,60,72,-70.73,8,-12.0,-184.0,-1062.0
2.094,-5,5,44,0,0,0,49,51,75,60,72,-70.67,8,-50.0,-134.0,-997.0
2.157,-4,5,45,0,0,0,49,51,76,60,72,-70.64,8,-25.0,-76.0,-1006.0
2.220,-4,5,45,0,0,0,49,51,76,60,72,-70.64,8,-25.0,-76.0,-1006.0
2.283,-4,5,44,0,0,0,49,51,76,60,71,-70.64,8,-73.0,-103.0,-1002.0
2.345,-3,4,44,0,0,0,49,51,76,60,71,-70.66,8,-89.0,-93.0,-923.0
2.397,-3,4,44,0,0,0,49,51,76,60,71,-70.66,8,-89.0,-93.0,-923.0
2.460,-3,4,44,0,0,0,49,51,77,60,71,-70.59,8,-46.0,-95.0,-972.0
2.522,-3,4,44,0,0,0,49,51,77,60,71,-70.59,8,-46.0,-95.0,-972.0
2.584,-3,4,44,0,0,0,49,51,77,60,71,-70.69,9,-55.0,-96.0,-995.0
2.647,-3,4,44,0,0,0,49,51,77,60,71,-70.69,9,-55.0,-96.0,-995.0
2.710,-3,4,43,0,0,0,49,51,76,60,71,-70.76,9,-55.0,-115.0,-1009.0
2.772,-2,3,43,0,0,0,49,51,76,60,71,-70.69,9,-57.0,-54.0,-964.0
2.835,-2,3,43,0,0,0,49,51,76,60,71,-70.69,9,-57.0,-54.0,-964.0
2.888,-2,3,44,0,0,0,49,51,77,60,71,-70.71,9,-44.0,-92.0,-987.0
2.951,-2,3,44,0,0,0,49,51,77,60,71,-70.71,9,-44.0,-92.0,-987.0
3.013,-2,3,44,0,0,0,49,51,77,60,71,-70.7,9,-70.0,-101.0,-985.0
3.076,-2,3,44,0,0,0,49,51,76,60,71,-70.71,9,-66.0,-100.0,-1015.0
3.139,-2,3,44,0,0,0,49,51,76,60,71,-70.71,9,-66.0,-100.0,-1015.0
3.202,-2,3,44,0,0,0,49,52,76,60,71,-70.76,9,-50.0,-50.0,-1007.0
3.264,-3,3,45,0,0,0,49,52,76,60,71,-70.67,9,-58.0,-48.0,-988.0
3.327,-2,3,45,0,0,0,49,52,76,60,71,-70.7,9,-60.0,-58.0,-981.0
3.390,-2,3,45,0,0,0,49,52,76,60,71,-70.7,9,-60.0,-58.0,-981.0
3.442,-2,3,45,0,0,0,49,52,76,60,71,-70.74,9,-65.0,-73.0,-1004.0
3.504,-2,3,45,0,0,0,49,52,76,60,71,-70.74,9,-65.0,-73.0,-1004.0
3.567,-2,3,45,0,0,0,49,52,76,60,71,-70.75,10,-61.0,-77.0,-1040.0
3.630,-2,3,45,0,0,0,49,52,76,60,71,-70.74,10,-79.0,-61.0,-984.0
3.692,-2,3,45,0,0,0,49,52,76,60,71,-70.74,10,-79.0,-61.0,-984.0
3.756,-3,3,46,0,0,0,49,52,76,60,71,-70.72,10,-84.0,-60.0,-981.0
3.819,-3,3,46,0,0,0,49,52,76,60,71,-70.72,10,-84.0,-60.0,-981.0
3.881,-3,3,46,0,0,0,49,52,75,60,71,-70.72,10,-80.0,-84.0,-1011.0
3.934,-3,3,46,0,0,0,49,52,76,60,71,-70.71,10,-54.0,-61.0,-998.0
3.996,-3,3,46,0,0,0,49,52,76,60,71,-70.71,10,-54.0,-61.0,-998.0
4.059,-2,3,46,0,0,0,49,52,76,60,71,-70.78,10,-62.0,-25.0,-988.0
4.122,-2,3,46,0,0,0,49,52,76,60,71,-70.78,10,-62.0,-25.0,-988.0
4.185,-2,3,46,0,0,0,49,52,77,60,71,-70.74,10,-89.0,-44.0,-967.0
4.248,-2,3,47,0,0,0,49,52,76,60,70,-70.73,10,-87.0,-57.0,-1006.0
4.311,-2,3,47,0,0,0,49,52,76,60,70,-70.73,10,-87.0,-57.0,-1006.0
4.373,-3,3,47,0,0,0,49,52,76,60,70,-70.68,10,-83.0,-104.0,-977.0
4.425,-3,3,47,0,0,0,49,52,76,60,70,-70.68,10,-83.0,-104.0,-977.0
4.487,-3,3,47,0,0,0,49,52,76,60,70,-70.69,10,-57.0,-101.0,-1016.0
4.550,-3,3,47,0,0,0,49,52,76,60,70,-70.78,11,-64.0,-90.0,-1006.0
4.614,-3,3,47,0,0,0,49,52,76,60,70,-70.78,11,-64.0,-90.0,-1006.0
4.676,-3,3,48,0,0,0,49,52,76,60,70,-70.75,11,-45.0,-82.0,-964.0
4.739,-3,3,48,0,0,0,49,52,76,60,70,-70.75,11,-45.0,-82.0,-964.0
4.802,-2,3,48,0,0,0,49,52,76,60,70,-70.65,11,-49.0,-81.0,-1000.0
4.865,-2,3,48,0,0,0,49,52,76,60,70,-70.66,11,-39.0,-87.0,-1019.0
4.915,-2,3,48,0,0,0,49,52,76,60,70,-70.66,11,-39.0,-87.0,-1019.0
4.979,-2,3,48,0,0,0,49,52,76,60,70,-70.75,11,-53.0,-90.0,-992.0
5.042,-2,3,48,0,0,0,49,52,76,60,70,-70.75,11,-53.0,-90.0,-992.0
5.104,-2,3,48,0,0,0,49,52,76,60,70,-70.79,11,-47.0,-65.0,-999.0
5.167,-2,3,48,0,0,0,49,51,76,60,70,-70.75,11,-71.0,-72.0,-1000.0
5.230,-2,3,48,0,0,0,49,51,76,60,70,-70.75,11,-71.0,-72.0,-1000.0
5.292,-2,3,48,0,0,0,49,51,76,60,70,-70.72,11,-66.0,-73.0,-993.0
5.355,-2,3,48,0,0,0,49,51,76,60,70,-70.81,11,-64.0,-82.0,-1020.0
5.418,-2,3,48,0,0,0,49,51,76,60,70,-70.81,11,-64.0,-82.0,-1020.0
5.470,-2,3,49,0,0,0,49,51,77,60,70,-70.74,11,-82.0,-75.0,-994.0
5.533,-2,3,49,0,0,0,49,51,77,60,70,-70.74,11,-82.0,-75.0,-994.0
5.595,-2,3,49,0,0,0,49,51,77,60,70,-70.76,12,-49.0,-94.0,-997.0
5.658,-2,3,49,0,0,0,49,51,76,60,70,-70.78,12,-70.0,-87.0,-994.0
5.721,-2,3,49,0,0,0,49,51,76,60,70,-70.78,12,-70.0,-87.0,-994.0
5.784,-2,3,49,0,0,0,49,51,76,60,70,-70.79,12,-71.0,-76.0,-972.0
5.846,-2,3,49,0,0,0,49,51,76,60,70,-70.79,12,-71.0,-76.0,-972.0
5.909,-1,2,49,0,0,0,49,51,77,60,70,-70.74,12,-64.0,-62.0,-1005.0
5.962,-1,2,49,0,0,0,49,51,77,60,70,-70.74,12,-64.0,-62.0,-1005.0
6.024,-1,2,49,0,0,0,49,51,76,60,70,-70.75,12,-65.0,-77.0,-1014.0
6.087,-1,2,49,0,0,0,49,51,76,60,70,-70.8,12,-78.0,-53.0,-983.0
6.150,-1,2,49,0,0,0,49,51,76,60,70,-70.8,12,-78.0,-53.0,-983.0
6.213,-1,2,49,0,0,0,50,52,76,60,70,-70.76,12,-75.0,-67.0,-986.0
6.275,-1,2,49,0,0,0,50,52,76,60,69,-70.83,12,-59.0,-73.0,-998.0
6.338,-1,2,49,0,0,0,50,52,76,60,69,-70.83,12,-59.0,-73.0,-998.0
6.400,-1,2,49,0,0,0,50,52,76,60,69,-70.83,12,-48.0,-68.0,-1008.0
6.452,-1,2,49,0,0,0,50,52,76,60,69,-70.83,12,-48.0,-68.0,-1008.0
6.515,-1,2,49,0,0,0,50,52,76,60,69,-70.81,12,-53.0,-48.0,-997.0
6.578,-1,2,49,0,0,0,50,52,75,60,69,-70.75,13,-64.0,-51.0,-979.0
6.640,-1,2,49,0,0,0,50,52,76,60,69,-70.73,13,-10.0,-58.0,-1034.0
6.703,-1,2,49,0,0,0,50,52,76,60,69,-70.73,13,-10.0,-58.0,-1034.0
6.766,-1,2,49,0,0,0,50,52,76,60,69,-70.67,13,-56.0,-66.0,-1004.0
6.829,-1,2,49,0,0,0,50,52,76,60,69,-70.67,13,-56.0,-66.0,-1004.0
6.891,-1,2,49,0,0,0,50,52,76,60,69,-70.69,13,-81.0,-61.0,-1016.0
