time_elapsed,pitch,roll,yaw,vgx,vgy,vgz,templ,temph,tof,h,bat,baro,time,agx,agy,agz
0.000,0,0,-14,0,0,0,86,87,78,60,85,-60.99,6,-13.0,16.0,-990.0
0.063,0,0,-14,0,0,0,86,87,78,60,85,-60.96,6,-30.0,17.0,-1003.0
0.125,0,0,-14,0,0,0,86,87,78,60,85,-60.96,6,-30.0,17.0,-1003.0
0.188,0,0,-14,0,0,0,86,87,78,60,85,-60.96,6,-30.0,17.0,-1003.0
0.250,0,0,-14,0,0,0,86,87,79,60,85,-60.96,6,-18.0,15.0,-992.0
0.311,0,0,-14,0,0,0,86,87,78,60,85,-60.99,6,-30.0,17.0,-988.0
0.375,0,0,-14,0,0,0,86,87,78,60,85,-60.99,6,-30.0,17.0,-988.0
0.437,-1,0,-13,0,0,0,86,87,78,60,85,-60.81,6,-35.0,20.0,-980.0
0.500,-1,-1,-13,0,0,0,86,87,78,60,85,-60.56,6,-43.0,-10.0,-966.0
0.562,-1,-1,-13,0,0,0,86,87,78,60,85,-60.56,6,-43.0,-10.0,-966.0
0.625,-2,-2,-13,0,0,0,86,87,78,60,85,-60.96,6,1.0,-65.0,-1082.0
0.687,-2,0,-13,0,0,0,85,88,78,60,85,-61.16,6,-5.0,5.0,-997.0
0.750,-2,0,-13,0,0,0,85,88,78,60,85,-61.16,6,-5.0,5.0,-997.0
0.812,-1,2,-13,0,0,0,85,88,79,60,85,-61.0,6,-22.0,29.0,-988.0
0.874,0,1,-14,0,0,0,85,88,79,60,85,-61.07,6,-20.0,41.0,-1002.0
0.937,0,1,-14,0,0,0,85,88,79,60,85,-61.07,6,-20.0,41.0,-1002.0
1.001,0,0,-14,0,0,0,85,88,79,60,85,-60.9,7,-25.0,38.0,-979.0
1.064,0,0,-14,0,0,0,85,88,79,60,85,-60.9,7,-25.0,38.0,-979.0
1.128,0,-1,-14,0,0,0,85,88,79,60,85,-60.66,7,-108.0,-19.0,-980.0
1.192,0,-1,-14,0,0,0,85,88,79,60,85,-60.66,7,-108.0,-19.0,-980.0
1.255,-1,-2,-13,0,0,0,85,88,78,60,85,-59.66,7,-68.0,147.0,-693.0
1.317,-5,-2,-13,-1,1,3,85,88,74,60,85,-59.27,7,4.0,87.0,-897.0
1.380,-5,-2,-13,-1,1,3,85,88,74,60,85,-59.27,7,4.0,87.0,-897.0
1.442,-5,0,-5,0,2,4,85,88,69,50,85,-59.61,7,179.0,95.0,-1119.0
1.504,1,0,22,0,4,3,85,88,67,50,85,-60.38,7,105.0,64.0,-1192.0
1.566,1,0,22,0,4,3,85,88,67,50,85,-60.38,7,105.0,64.0,-1192.0
1.627,8,-5,55,0,4,0,85,88,67,50,85,-61.11,7,40.0,59.0,-1256.0
1.689,9,-2,88,0,2,0,85,87,68,50,85,-61.04,7,37.0,72.0,-1138.0
1.751,9,-2,88,0,2,0,85,87,68,50,85,-61.04,7,37.0,72.0,-1138.0
1.813,4,0,111,0,0,-2,85,87,70,50,85,-61.09,7,16.0,40.0,-1029.0
1.873,4,0,111,0,0,-2,85,87,70,50,85,-61.09,7,16.0,40.0,-1029.0
1.937,2,0,122,0,0,-2,85,87,73,50,85,-61.14,7,-38.0,35.0,-1025.0
1.999,2,0,122,0,0,-2,85,87,73,50,85,-61.14,7,-38.0,35.0,-1025.0
2.061,2,0,121,0,0,-2,85,87,75,50,85,-61.11,8,-28.0,44.0,-976.0
2.123,1,1,109,0,0,-2,85,87,77,60,85,-60.99,8,30.0,23.0,-938.0
2.186,1,1,109,0,0,-2,85,87,77,60,85,-60.99,8,30.0,23.0,-938.0
2.248,1,0,95,0,0,-1,85,87,79,60,85,-60.91,8,-10.0,41.0,-983.0
2.312,0,0,81,0,-1,-1,85,87,81,60,85,-60.89,8,3.0,25.0,-993.0
2.374,0,0,81,0,-1,-1,85,87,81,60,85,-60.89,8,3.0,25.0,-993.0
2.437,0,0,81,0,-1,-1,85,87,81,60,85,-60.89,8,3.0,25.0,-993.0
2.501,0,0,57,0,0,0,85,87,83,60,85,-60.9,8,-16.0,39.0,-967.0
2.563,0,0,57,0,0,0,85,87,83,60,85,-60.9,8,-16.0,39.0,-967.0
2.624,0,0,57,0,0,0,85,87,83,60,85,-60.9,8,-16.0,39.0,-967.0
2.687,0,0,45,0,0,0,85,87,84,60,85,-60.95,8,2.0,21.0,-977.0
2.748,0,-1,22,0,0,0,85,87,84,60,85,-60.88,8,11.0,6.0,-956.0
2.812,0,-1,22,0,0,0,85,87,84,60,85,-60.88,8,11.0,6.0,-956.0
2.875,0,-1,10,0,0,0,85,87,85,60,85,-60.92,8,0.0,9.0,-984.0
2.938,0,0,0,0,-1,0,85,87,85,60,85,-60.88,9,1.0,13.0,-992.0
3.002,0,0,-11,0,-1,0,85,87,84,60,85,-60.92,9,-3.0,13.0,-984.0
3.065,0,0,-14,0,0,0,85,87,84,60,85,-60.91,9,1.0,6.0,-999.0
3.128,0,0,-14,0,0,0,85,87,84,60,85,-60.91,9,1.0,6.0,-999.0
3.189,0,0,-15,0,0,0,85,87,84,60,85,-60.93,9,0.0,14.0,-1012.0
3.252,0,0,-15,0,0,0,85,87,84,60,85,-60.93,9,0.0,14.0,-1012.0
3.314,0,0,-15,0,0,0,85,87,84,60,85,-60.94,9,0.0,18.0,-984.0
3.377,0,-1,-14,0,0,0,85,87,84,60,85,-60.91,9,-12.0,20.0,-981.0
3.439,0,-1,-14,0,0,0,85,87,84,60,85,-60.91,9,-12.0,20.0,-981.0
3.503,0,-1,-14,0,0,0,85,87,84,60,85,-60.89,9,10.0,4.0,-975.0
3.565,0,-1,-14,0,0,0,85,87,84,60,85,-60.89,9,10.0,4.0,-975.0
3.628,0,0,-14,0,-1,0,85,87,84,70,85,-60.83,9,-2.0,15.0,-999.0
3.692,0,0,-14,0,-1,0,84,87,83,70,85,-60.9,9,0.0,18.0,-989.0
3.755,0,0,-14,0,-1,0,84,87,83,70,85,-60.9,9,0.0,18.0,-989.0
3.817,0,0,-14,0,-1,0,84,87,83,70,85,-60.95,9,3.0,16.0,-1002.0
3.879,0,0,-14,0,-1,0,84,87,82,70,85,-60.89,10,-5.0,6.0,-964.0
3.942,0,0,-14,0,-1,0,84,87,82,70,85,-60.89,10,-5.0,6.0,-964.0
4.003,0,0,-14,0,-1,0,84,87,82,70,85,-60.99,10,-6.0,19.0,-979.0
4.065,0,0,-14,0,-1,0,84,87,82,70,85,-60.99,10,-6.0,19.0,-979.0
4.128,0,0,-14,0,-1,0,84,87,80,70,85,-60.91,10,8.0,3.0,-972.0
4.189,0,0,-14,0,-1,0,84,87,79,70,85,-60.93,10,-1.0,13.0,-982.0
4.251,0,0,-14,0,-1,0,84,87,79,70,85,-60.93,10,-1.0,13.0,-982.0
4.314,0,0,-14,0,-1,0,84,87,78,70,85,-61.0,10,-10.0,19.0,-973.0
4.377,0,0,-14,0,-1,0,84,87,78,70,85,-61.0,10,-10.0,19.0,-973.0
4.438,0,0,-14,0,-1,0,84,87,76,70,85,-60.95,10,-4.0,3.0,-977.0
4.499,0,0,-14,0,-1,0,84,87,75,60,85,-60.99,10,-5.0,7.0,-1000.0
4.561,0,0,-14,0,-1,0,84,87,75,60,85,-60.99,10,-5.0,7.0,-1000.0
4.623,0,0,-14,0,-1,0,84,87,73,60,85,-60.97,10,-8.0,9.0,-999.0
4.686,0,0,-14,0,-1,0,84,87,73,60,85,-60.97,10,-8.0,9.0,-999.0
4.749,0,0,-14,0,-1,0,84,85,72,60,85,-61.02,10,-2.0,3.0,-1005.0
4.812,0,0,-14,0,-1,0,84,85,70,60,85,-60.98,10,-2.0,14.0,-1014.0
4.876,0,0,-14,0,-1,0,84,85,70,60,85,-60.98,10,-2.0,14.0,-1014.0
4.937,0,0,-14,0,-1,0,84,85,69,60,85,-61.0,11,-1.0,13.0,-1020.0
5.001,0,0,-14,0,-1,0,84,85,67,60,85,-61.0,11,-22.0,15.0,-1014.0
5.062,0,0,-14,0,-1,0,84,85,67,60,85,-61.0,11,-22.0,15.0,-1014.0
5.124,0,0,-14,0,0,0,84,85,67,60,85,-61.04,11,-6.0,-2.0,-1013.0
5.187,0,0,-14,0,0,0,84,85,67,60,85,-61.04,11,-6.0,-2.0,-1013.0
5.248,0,0,-14,0,0,0,84,85,66,60,85,-61.02,11,-15.0,13.0,-1023.0
5.311,0,0,-14,0,0,0,84,85,65,60,85,-61.08,11,6.0,-8.0,-1014.0
5.373,0,0,-14,0,0,0,84,85,65,60,85,-61.08,11,6.0,-8.0,-1014.0
5.436,0,0,-14,0,0,0,84,85,65,60,85,-61.05,11,-11.0,0.0,-1025.0
5.498,0,0,-14,0,0,0,84,85,65,60,85,-61.05,11,-11.0,0.0,-1025.0
5.561,0,0,-14,0,0,0,84,85,65,50,85,-61.09,11,-11.0,8.0,-1005.0
5.622,0,0,-14,0,0,0,84,85,65,50,85,-60.99,11,0.0,-5.0,-1010.0
5.685,0,0,-14,0,0,0,84,85,65,50,85,-60.99,11,0.0,-5.0,-1010.0
5.745,0,0,-14,0,0,0,83,86,65,50,85,-60.97,11,-8.0,2.0,-1009.0
5.809,0,0,-14,0,0,0,83,86,65,50,85,-60.97,11,-8.0,2.0,-1009.0
5.872,0,0,-14,0,0,0,83,86,66,50,85,-61.09,11,4.0,11.0,-1011.0
5.935,0,0,-14,0,0,0,83,86,66,50,85,-61.1,12,-30.0,-6.0,-1009.0
5.998,0,0,-14,0,0,0,83,86,66,50,85,-61.1,12,-30.0,-6.0,-1009.0
6.059,0,0,-14,0,-1,0,83,86,67,50,85,-61.13,12,-19.0,-23.0,-1021.0
6.122,0,0,-14,0,-1,0,83,86,67,50,85,-61.13,12,-19.0,-23.0,-1021.0
6.184,0,0,-14,0,-1,0,83,86,68,50,85,-61.09,12,0.0,-1.0,-1008.0
6.246,0,0,-14,0,0,0,83,86,69,60,85,-60.97,12,-13.0,36.0,-1004.0
6.308,0,0,-14,0,0,0,83,86,69,60,85,-60.97,12,-13.0,36.0,-1004.0
6.372,0,0,-14,0,0,0,83,86,71,60,85,-60.98,12,-19.0,38.0,-992.0
6.434,0,-1,-14,0,0,0,83,86,71,60,85,-61.04,12,-52.0,67.0,-974.0
6.495,-2,-4,-14,0,0,0,83,86,71,60,85,-59.44,12,-109.0,0.0,-852.0
6.557,-2,-4,-14,0,0,0,83,86,71,60,85,-59.44,12,-109.0,0.0,-852.0
6.619,-2,-4,-14,0,0,0,83,86,71,60,85,-59.44,12,-109.0,0.0,-852.0
6.682,-8,-2,-10,-1,0,3,83,86,69,50,85,-57.94,12,133.0,-33.0,-678.0
6.744,-7,-5,9,1,0,4,84,86,65,50,85,-60.38,12,187.0,-35.0,-1161.0
6.807,3,0,37,2,-1,1,84,86,61,50,85,-61.01,12,70.0,-46.0,-1386.0
6.869,3,0,37,2,-1,1,84,86,61,50,85,-61.01,12,70.0,-46.0,-1386.0
6.931,3,0,37,2,-1,1,84,86,61,50,85,-61.01,12,70.0,-46.0,-1386.0
6.994,0,4,58,0,-2,-2,84,86,65,50,85,-61.13,13,7.0,29.0,-1126.0
7.055,0,4,58,0,-2,-2,84,86,65,50,85,-61.13,13,7.0,29.0,-1126.0
7.118,0,4,58,0,-2,-2,84,86,65,50,85,-61.13,13,7.0,29.0,-1126.0
7.182,0,2,52,0,-1,-3,84,86,69,50,85,-61.21,13,-16.0,42.0,-1040.0
7.245,0,0,37,0,-1,-3,84,86,72,50,85,-61.06,13,14.0,33.0,-953.0
7.308,0,0,23,0,-1,-2,84,86,76,50,85,-60.99,13,-3.0,18.0,-986.0
7.371,0,0,23,0,-1,-2,84,86,76,50,85,-60.99,13,-3.0,18.0,-986.0
7.433,0,0,23,0,-1,-2,84,86,76,50,85,-60.99,13,-3.0,18.0,-986.0
7.495,0,0,9,0,0,-2,84,86,79,60,85,-61.04,13,2.0,20.0,-980.0
7.556,-1,0,-3,0,0,-2,84,86,82,60,85,-61.06,13,-11.0,14.0,-949.0
7.619,-1,0,-3,0,0,-2,84,86,82,60,85,-61.06,13,-11.0,14.0,-949.0
7.681,-1,0,-13,0,0,-1,84,86,85,60,85,-60.92,13,29.0,-21.0,-960.0
7.743,0,-1,-15,0,0,-1,84,86,87,70,85,-60.94,13,-14.0,-2.0,-917.0
7.805,0,-1,-15,0,0,-1,84,86,87,70,85,-60.94,13,-14.0,-2.0,-917.0
7.868,0,-1,-15,0,0,0,84,86,88,70,85,-60.91,13,-13.0,0.0,-932.0
7.930,0,-1,-15,0,0,0,84,86,88,70,85,-60.92,14,-16.0,8.0,-965.0
7.993,0,-1,-15,0,0,0,84,86,88,70,85,-60.92,14,-16.0,8.0,-965.0
8.056,0,-1,-15,0,0,0,84,86,88,70,85,-60.92,14,-16.0,8.0,-965.0
8.118,0,0,-15,0,0,0,84,86,88,70,85,-60.89,14,-16.0,3.0,-1001.0
8.181,0,0,-15,0,0,0,84,86,88,70,85,-60.89,14,-16.0,3.0,-1001.0
8.243,0,0,-15,0,0,0,84,86,88,70,85,-60.89,14,-16.0,3.0,-1001.0
8.306,0,0,-15,0,0,0,84,86,87,70,85,-60.9,14,-11.0,8.0,-968.0
8.369,0,0,-14,0,0,0,84,86,87,70,85,-60.93,14,-1.0,-3.0,-984.0
8.432,0,0,-14,0,0,0,84,86,87,70,85,-60.93,14,-1.0,-3.0,-984.0
8.495,0,0,-14,0,-1,0,84,86,87,70,85,-60.91,14,-19.0,-8.0,-995.0
8.558,0,0,-14,0,-1,0,84,86,86,70,85,-60.96,14,-30.0,10.0,-993.0
8.620,0,0,-14,0,-1,0,84,86,86,70,85,-60.96,14,-30.0,10.0,-993.0
8.681,0,0,-14,0,-1,0,84,86,86,70,85,-60.96,14,-30.0,10.0,-993.0
8.743,0,0,-14,0,-1,0,84,86,86,70,85,-60.96,14,-30.0,10.0,-993.0
8.804,0,0,-14,0,-1,0,83,86,84,70,85,-60.93,14,-19.0,17.0,-1026.0
8.867,0,0,-14,0,0,0,83,86,84,60,85,-60.95,14,-17.0,-6.0,-995.0
8.930,0,0,-14,0,0,0,83,86,84,60,85,-60.95,14,-17.0,-6.0,-995.0
8.991,0,0,-14,0,0,0,83,86,84,60,85,-60.95,14,-17.0,-6.0,-995.0
9.054,0,0,-14,0,0,0,83,86,83,60,85,-60.98,15,-16.0,-5.0,-998.0
9.117,0,0,-14,0,0,0,83,86,83,60,85,-60.98,15,-16.0,-5.0,-998.0
9.179,0,0,-14,0,0,0,83,86,83,60,85,-60.98,15,-16.0,-5.0,-998.0
9.241,0,0,-14,0,0,0,83,86,82,60,85,-60.99,15,-16.0,-3.0,-1015.0
9.303,0,0,-14,0,0,0,83,86,82,60,85,-60.99,15,-16.0,-3.0,-1015.0
9.366,0,0,-14,0,0,0,83,86,82,60,85,-60.99,15,-16.0,-3.0,-1015.0
9.428,0,0,-14,0,0,0,83,86,81,60,85,-60.91,15,-18.0,-6.0,-1012.0
9.491,0,0,-14,0,0,0,83,86,81,60,85,-60.96,15,-7.0,4.0,-1001.0
9.553,0,0,-14,0,0,0,83,86,81,60,85,-60.96,15,-7.0,4.0,-1001.0
9.616,0,0,-14,0,0,0,83,86,81,60,85,-60.89,15,-10.0,7.0,-999.0
9.680,0,0,-14,0,0,0,83,86,81,60,85,-61.0,15,-22.0,0.0,-1004.0
9.742,0,0,-14,0,0,0,83,86,81,60,85,-61.0,15,-22.0,0.0,-1004.0
9.804,0,0,-14,0,0,0,83,86,80,60,85,-60.89,15,-14.0,-1.0,-1004.0
9.864,0,0,-14,0,0,0,83,86,81,60,85,-60.85,15,0.0,0.0,-1000.0
9.925,0,0,-14,0,0,0,83,86,81,60,85,-60.85,15,0.0,0.0,-1000.0
9.988,0,0,-14,0,0,0,83,86,81,60,85,-60.94,16,-24.0,-1.0,-1010.0
10.050,0,0,-14,0,0,0,83,86,81,60,85,-60.94,16,0.0,-3.0,-997.0
10.112,0,0,-14,0,0,0,83,86,81,60,85,-60.94,16,0.0,-3.0,-997.0
10.175,0,0,-14,0,0,0,83,86,80,60,85,-60.94,16,-9.0,3.0,-1002.0
10.237,0,0,-14,0,0,0,83,86,80,60,85,-60.89,16,-14.0,14.0,-998.0
10.300,0,0,-14,0,0,0,83,86,80,60,85,-60.89,16,-14.0,14.0,-998.0
10.362,0,0,-14,0,0,0,83,86,80,60,85,-60.86,16,-14.0,8.0,-990.0
10.424,0,0,-14,0,0,0,83,86,80,60,85,-60.85,16,-18.0,11.0,-1005.0
10.487,0,0,-14,0,0,0,83,86,80,60,85,-60.85,16,-18.0,11.0,-1005.0
10.549,0,0,-14,0,0,0,83,86,79,60,85,-60.85,16,-15.0,9.0,-1002.0
10.612,0,0,-14,0,0,0,83,86,80,60,85,-60.95,16,-23.0,3.0,-990.0
10.673,0,0,-14,0,0,0,83,86,80,60,85,-60.95,16,-23.0,3.0,-990.0
10.736,0,0,-14,0,0,0,82,86,79,60,85,-60.98,16,-11.0,12.0,-1008.0
10.799,0,0,-14,0,0,0,82,86,79,60,85,-60.98,16,-11.0,12.0,-1008.0
10.861,0,0,-14,0,0,0,82,86,79,60,85,-60.91,16,-6.0,28.0,-1005.0
10.925,0,0,-14,0,0,0,82,86,79,60,85,-60.91,16,-6.0,28.0,-1005.0
10.988,0,-1,-14,0,0,0,82,86,79,60,85,-60.92,17,-25.0,11.0,-1003.0
11.050,0,-1,-14,0,0,0,82,86,79,60,85,-60.84,17,-18.0,-3.0,-1014.0
11.114,0,-1,-14,0,0,0,82,86,79,60,85,-60.84,17,-18.0,-3.0,-1014.0
11.177,0,-1,-14,0,0,0,82,86,79,60,85,-60.96,17,-18.0,-6.0,-1016.0
11.239,0,0,-14,0,0,0,82,86,79,60,85,-61.08,17,-25.0,-5.0,-1000.0
11.301,0,0,-14,0,0,0,82,86,79,60,85,-61.08,17,-25.0,-5.0,-1000.0
11.363,0,0,-14,0,0,0,82,86,79,60,85,-61.08,17,-25.0,-5.0,-1000.0
11.426,0,0,-14,0,0,0,82,86,79,60,85,-61.08,17,-25.0,-5.0,-1000.0
11.487,0,0,-14,0,0,0,82,86,79,60,85,-60.97,17,-36.0,22.0,-988.0
11.551,0,0,-14,0,0,0,82,86,80,60,85,-60.93,17,-21.0,44.0,-991.0
11.614,0,0,-14,0,0,0,82,86,80,60,85,-60.93,17,-21.0,44.0,-991.0
11.675,0,-2,-14,0,0,0,82,86,79,60,85,-60.78,17,-46.0,15.0,-974.0
11.738,-1,-2,-14,0,0,0,83,85,80,60,85,-60.11,17,-182.0,19.0,-944.0
11.800,-1,-2,-14,0,0,0,83,85,80,60,85,-60.11,17,-182.0,19.0,-944.0
11.863,-4,-2,-12,-1,0,0,83,85,79,60,85,-60.2,17,228.0,-23.0,-1044.0
11.925,-4,-2,-12,-1,0,0,83,85,79,60,85,-60.2,17,228.0,-23.0,-1044.0
11.989,-8,2,-5,0,-1,2,83,85,78,60,85,-60.58,18,149.0,55.0,-1046.0
12.052,-8,2,-5,0,-1,2,83,85,78,60,85,-60.58,18,149.0,55.0,-1046.0
12.114,0,3,6,2,0,1,83,85,74,60,85,-60.84,18,37.0,64.0,-1130.0
12.177,5,-2,10,2,0,0,83,85,74,60,85,-61.18,18,33.0,40.0,-1131.0
12.239,5,-2,10,2,0,0,83,85,74,60,85,-61.18,18,33.0,40.0,-1131.0
12.300,4,-2,7,2,0,0,83,85,74,60,85,-60.92,18,44.0,-25.0,-1001.0
12.362,5,-4,-1,1,0,0,83,85,75,60,85,-60.9,18,35.0,7.0,-1022.0
12.424,5,-4,-1,1,0,0,83,85,75,60,85,-60.9,18,35.0,7.0,-1022.0
12.486,4,-2,-12,1,0,0,83,85,76,60,85,-60.95,18,33.0,-2.0,-997.0
12.549,3,-1,-15,1,0,0,83,85,76,60,85,-60.9,18,29.0,0.0,-1000.0
12.612,3,-1,-15,1,0,0,83,85,76,60,85,-60.9,18,29.0,0.0,-1000.0
12.674,3,-1,-15,1,0,0,83,85,76,60,85,-60.9,18,29.0,0.0,-1000.0
12.736,3,-1,-15,1,0,-1,83,85,77,60,85,-60.93,18,7.0,2.0,-1003.0
12.799,2,0,-15,1,0,0,83,86,79,60,85,-60.95,18,9.0,37.0,-988.0
12.861,2,0,-15,1,0,0,83,86,79,60,85,-60.95,18,9.0,37.0,-988.0
12.924,2,-1,-14,0,0,0,83,86,79,60,85,-60.93,18,-1.0,23.0,-986.0
12.987,1,-1,-14,0,0,0,83,86,79,60,85,-60.89,19,-9.0,14.0,-983.0
13.050,1,-1,-14,0,0,0,83,86,79,60,85,-60.89,19,-9.0,14.0,-983.0
13.114,1,-1,-14,0,0,0,83,86,79,60,85,-60.87,19,-8.0,24.0,-982.0
13.177,1,-1,-14,0,0,0,83,86,79,60,85,-60.93,19,-5.0,25.0,-1007.0
13.239,1,-1,-14,0,0,0,83,86,79,60,85,-60.93,19,-5.0,25.0,-1007.0
13.303,0,-1,-14,0,0,0,83,86,79,60,85,-60.81,19,19.0,7.0,-1002.0
13.367,0,-1,-14,0,0,0,83,86,79,60,85,-60.86,19,-12.0,14.0,-981.0
13.430,0,-1,-14,0,0,0,83,86,79,60,85,-60.86,19,-12.0,14.0,-981.0
13.492,0,-1,-14,0,0,0,83,86,79,60,85,-60.86,19,-12.0,14.0,-981.0
13.554,0,-1,-14,0,0,0,83,86,78,60,85,-60.97,19,4.0,11.0,-991.0
13.617,0,-1,-14,0,0,0,83,86,78,60,85,-61.03,19,-4.0,16.0,-984.0
13.678,0,-1,-14,0,0,0,83,86,78,60,85,-61.03,19,-4.0,16.0,-984.0
13.740,0,-1,-14,0,0,0,83,86,78,60,85,-60.99,19,-13.0,38.0,-1002.0
13.802,0,-1,-14,0,0,0,83,85,78,60,85,-60.97,19,11.0,32.0,-982.0
13.864,0,-1,-14,0,0,0,83,85,78,60,85,-60.97,19,11.0,32.0,-982.0
13.927,0,-1,-14,0,0,0,83,85,78,60,85,-60.94,19,2.0,34.0,-1006.0
13.990,0,-1,-14,0,0,0,83,85,77,60,85,-60.89,20,9.0,11.0,-983.0
14.052,0,-1,-14,0,0,0,83,85,77,60,85,-60.89,20,9.0,11.0,-983.0
14.115,0,-1,-14,0,0,0,83,85,77,60,85,-60.83,20,-10.0,11.0,-998.0
14.176,0,-1,-14,0,0,0,83,85,77,60,85,-60.83,20,-10.0,11.0,-998.0
14.239,0,-1,-14,0,0,0,83,85,77,60,85,-60.87,20,1.0,8.0,-1011.0
14.300,0,-1,-14,0,0,0,83,85,77,60,85,-60.81,20,-16.0,24.0,-996.0
14.362,0,-1,-14,0,0,0,83,85,77,60,85,-60.81,20,-16.0,24.0,-996.0
14.426,0,-1,-14,0,0,0,83,85,77,60,85,-60.82,20,-17.0,22.0,-1018.0
14.489,0,-1,-14,0,0,0,83,85,77,60,85,-60.92,20,0.0,20.0,-999.0
14.551,0,-1,-14,0,0,0,83,85,77,60,85,-60.92,20,0.0,20.0,-999.0
14.614,0,-1,-14,0,0,0,83,85,77,60,85,-60.92,20,0.0,20.0,-999.0
14.677,0,-1,-14,0,0,0,83,85,78,60,85,-60.95,20,-22.0,11.0,-993.0
14.739,0,-1,-14,0,0,0,83,85,78,60,85,-60.95,20,-22.0,11.0,-993.0
14.802,0,-1,-14,0,0,0,83,85,78,60,85,-60.95,20,-22.0,11.0,-993.0
14.864,0,-1,-14,0,0,0,83,85,78,60,85,-60.88,20,-5.0,24.0,-996.0
14.926,0,-1,-14,0,0,0,83,85,78,60,85,-60.88,20,-5.0,24.0,-996.0
14.988,0,-1,-14,0,0,0,83,85,78,60,85,-60.88,20,-5.0,24.0,-996.0
15.051,0,-1,-14,0,0,0,83,85,79,60,85,-60.94,21,-26.0,20.0,-996.0
15.113,0,-1,-14,0,0,0,83,85,79,60,85,-60.94,21,-26.0,20.0,-996.0
15.175,0,-1,-14,0,0,0,83,85,79,60,85,-60.94,21,-26.0,20.0,-996.0
15.239,0,-1,-14,0,0,0,83,85,79,60,85,-60.94,21,-26.0,20.0,-996.0
15.301,0,0,-14,0,0,0,83,85,79,60,85,-60.87,21,-37.0,16.0,-992.0
15.362,0,0,-14,0,0,0,83,85,79,60,85,-60.87,21,-37.0,16.0,-992.0
15.426,0,0,-14,0,0,0,83,85,79,60,85,-60.87,21,-37.0,16.0,-992.0
15.488,0,0,-14,0,0,0,83,85,79,60,85,-60.87,21,-21.0,-9.0,-1011.0
15.550,0,0,-14,0,0,0,83,85,79,60,85,-60.87,21,-21.0,-9.0,-1011.0
15.613,0,0,-14,0,0,0,83,85,79,60,85,-60.87,21,-21.0,-9.0,-1011.0
15.676,0,0,-14,0,-1,0,83,85,79,60,85,-61.12,21,-19.0,6.0,-981.0
15.739,0,0,-14,0,-1,0,83,85,79,60,85,-61.12,21,-19.0,6.0,-981.0
15.800,0,0,-14,0,-1,0,83,85,79,60,85,-61.12,21,-19.0,6.0,-981.0
15.863,0,0,-14,0,0,0,83,86,79,60,85,-61.02,21,-57.0,25.0,-1066.0
15.925,0,0,-14,0,0,0,83,86,79,60,85,-61.02,21,-57.0,25.0,-1066.0
15.988,0,0,-14,0,0,0,83,86,80,60,85,-61.13,22,-93.0,44.0,-1019.0
16.049,0,0,-14,0,0,0,83,86,80,60,85,-61.13,22,-93.0,44.0,-1019.0
16.112,-1,0,-13,-1,0,0,83,86,82,60,85,-61.15,22,-45.0,18.0,-990.0
16.174,-1,0,-13,-1,0,0,83,86,82,60,85,-61.15,22,-45.0,18.0,-990.0
16.236,-1,0,-13,-1,0,0,83,86,82,60,85,-61.15,22,-45.0,18.0,-990.0
16.299,-4,-1,-7,-1,0,1,83,86,80,60,85,-59.24,22,169.0,-98.0,-850.0
16.361,-4,-1,-7,-1,0,1,83,86,80,60,85,-59.24,22,169.0,-98.0,-850.0
16.424,-4,-1,-7,-1,0,1,83,86,80,60,85,-59.24,22,169.0,-98.0,-850.0
16.487,-1,3,43,1,0,3,83,86,73,60,85,-60.68,22,136.0,44.0,-1038.0
16.549,-1,3,43,1,0,3,83,86,73,60,85,-60.68,22,136.0,44.0,-1038.0
16.611,0,2,74,1,0,2,83,86,71,50,85,-60.82,22,-18.0,-81.0,-1278.0
16.674,0,2,74,1,0,2,83,86,71,50,85,-60.82,22,-18.0,-81.0,-1278.0
16.737,2,3,92,2,0,0,83,86,71,50,85,-61.06,22,24.0,10.0,-1043.0
16.799,1,5,100,1,0,0,83,85,71,50,85,-61.04,22,1.0,-12.0,-996.0
16.861,1,5,100,1,0,0,83,85,71,50,85,-61.04,22,1.0,-12.0,-996.0
16.924,2,4,99,1,0,0,83,85,71,50,85,-61.12,22,16.0,28.0,-883.0
16.987,1,4,91,0,0,1,83,85,68,50,85,-61.07,23,43.0,11.0,-873.0
17.049,1,4,91,0,0,1,83,85,68,50,85,-61.07,23,43.0,11.0,-873.0
17.111,1,4,91,0,0,1,83,85,68,50,85,-61.07,23,43.0,11.0,-873.0
17.173,1,4,91,0,0,1,83,85,68,50,85,-61.07,23,43.0,11.0,-873.0
17.236,2,0,62,0,0,3,83,85,62,40,85,-61.1,23,12.0,14.0,-974.0
17.299,2,0,48,0,0,4,83,85,58,40,85,-61.15,23,27.0,28.0,-969.0
17.361,2,0,48,0,0,4,83,85,58,40,85,-61.15,23,27.0,28.0,-969.0
17.423,1,0,34,0,0,4,83,85,54,40,85,-61.22,23,0.0,38.0,-974.0
17.485,1,0,34,0,0,4,83,85,54,40,85,-61.22,23,0.0,38.0,-974.0
17.547,0,0,20,0,0,4,83,85,49,30,85,-61.3,23,-27.0,36.0,-983.0
17.610,1,0,7,0,0,4,83,85,45,30,85,-61.27,23,-20.0,31.0,-983.0
17.672,1,0,7,0,0,4,83,85,45,30,85,-61.27,23,-20.0,31.0,-983.0
17.735,1,-1,-6,0,0,4,83,85,40,30,85,-61.33,23,1.0,-4.0,-986.0
17.797,1,-1,-6,0,0,4,83,85,40,30,85,-61.33,23,1.0,-4.0,-986.0
17.860,0,-2,-16,0,0,4,83,84,35,20,85,-61.31,23,-29.0,32.0,-984.0
17.923,0,-1,-15,0,0,4,83,84,31,10,85,-61.34,24,-13.0,-3.0,-1004.0
17.986,0,-1,-15,0,0,4,83,84,31,10,85,-61.34,24,-13.0,-3.0,-1004.0
18.048,0,-1,-15,0,0,4,83,84,27,10,85,-61.38,24,-20.0,6.0,-1012.0
18.111,0,0,-15,0,0,4,83,84,21,0,85,-61.49,24,-19.0,14.0,-978.0
18.173,0,0,-15,0,0,4,83,84,21,0,85,-61.49,24,-19.0,14.0,-978.0
18.235,0,0,-15,0,0,4,83,84,17,0,85,-61.63,24,-36.0,12.0,-1031.0
18.298,0,0,-15,0,0,4,83,84,17,0,85,-61.63,24,-36.0,12.0,-1031.0
18.359,0,0,-15,0,0,3,83,84,12,0,85,-61.91,24,-22.0,7.0,-1048.0
18.422,0,0,-15,0,0,3,83,84,10,0,85,-62.6,24,-9.0,13.0,-1001.0
18.485,0,0,-15,0,0,3,83,84,10,0,85,-62.6,24,-9.0,13.0,-1001.0
18.547,-1,0,-15,0,0,3,83,84,10,0,85,-63.54,24,-35.0,5.0,-1029.0
18.609,0,0,-14,0,0,2,83,84,10,-10,85,-65.06,24,-21.0,9.0,-1037.0
18.671,0,0,-14,0,0,2,83,84,10,-10,85,-65.06,24,-21.0,9.0,-1037.0
18.732,-4,0,-16,-1,0,-1,83,84,10,-10,85,-64.17,24,-12.0,2.0,-1039.0
18.795,-3,0,-17,0,0,1,82,85,10,-10,85,-64.11,24,-4.0,6.0,-721.0
18.857,-3,0,-17,0,0,1,82,85,10,-10,85,-64.11,24,-4.0,6.0,-721.0
18.919,-3,0,-17,0,0,1,82,85,10,-10,85,-64.11,24,-4.0,6.0,-721.0
18.982,0,-1,-17,-2,0,0,82,85,10,0,85,-63.9,25,-142.0,-1.0,-939.0
19.044,0,-1,-17,-2,0,0,82,85,10,0,85,-63.9,25,-142.0,-1.0,-939.0
19.106,0,-1,-17,-2,0,0,82,85,10,0,85,-63.9,25,-142.0,-1.0,-939.0
19.169,0,0,-17,-2,0,0,82,85,10,0,85,-63.37,25,-22.0,-14.0,-1287.0
19.232,1,-1,-17,-3,0,0,82,85,10,0,85,-62.9,25,-5.0,17.0,-1008.0
19.295,1,-1,-17,-3,0,0,82,85,10,0,85,-62.9,25,-5.0,17.0,-1008.0
19.359,1,-1,-17,-3,0,0,82,85,10,0,85,-62.7,25,0.0,10.0,-1001.0
19.422,1,-1,-17,-3,0,0,82,85,10,0,85,-62.68,25,0.0,10.0,-1004.0
19.483,1,-1,-17,-3,0,0,82,85,10,0,85,-62.68,25,0.0,10.0,-1004.0
19.547,1,-1,-17,-3,0,0,82,85,10,0,85,-62.6,25,-7.0,10.0,-1006.0
19.610,1,0,-17,-3,0,0,82,85,10,0,85,-62.54,25,-1.0,8.0,-999.0
19.672,1,0,-17,-3,0,0,82,85,10,0,85,-62.54,25,-1.0,8.0,-999.0
19.735,1,0,-17,-3,0,0,82,85,10,0,85,-62.54,25,-1.0,8.0,-999.0
19.797,1,0,-17,-4,0,1,82,85,10,0,85,-62.02,25,-1.0,10.0,-997.0
19.861,1,0,-17,-4,0,1,82,85,10,0,85,-62.02,25,-1.0,10.0,-997.0
19.923,1,0,-17,-4,0,1,82,85,10,0,85,-62.02,25,-1.0,10.0,-997.0
19.985,0,0,-17,-4,0,1,82,85,10,0,85,-61.88,25,0.0,10.0,-995.0
20.049,0,0,-17,-4,0,1,82,85,10,0,85,-61.82,25,1.0,16.0,-995.0
20.111,0,0,-17,0,0,0,82,85,10,0,85,-61.81,25,-1.0,18.0,-999.0
20.174,0,0,-17,0,0,0,82,85,10,0,85,-61.81,25,-1.0,18.0,-999.0
20.236,0,0,-17,0,0,0,82,85,10,0,85,-61.81,25,-1.0,18.0,-999.0
20.299,0,0,-17,0,0,0,82,85,10,0,85,-61.83,25,-5.0,6.0,-996.0
20.360,0,0,-17,0,0,0,82,85,10,0,85,-61.83,25,-5.0,6.0,-996.0
20.422,0,0,-17,0,0,0,82,85,10,0,85,-61.83,25,-5.0,6.0,-996.0
20.485,0,0,-17,0,0,0,82,85,10,0,85,-61.83,25,-2.0,11.0,-996.0
20.547,0,0,-17,0,0,0,82,85,10,0,85,-61.79,25,-1.0,10.0,-994.0
20.609,0,0,-17,0,0,0,82,85,10,0,85,-61.79,25,-1.0,9.0,-996.0
20.671,0,0,-17,0,0,0,82,85,10,0,85,-61.79,25,-1.0,9.0,-996.0
20.733,0,0,-17,0,0,0,82,85,10,0,85,-61.79,25,-1.0,9.0,-996.0
20.797,0,0,-17,0,0,0,82,85,10,0,85,-61.75,25,0.0,9.0,-996.0
20.858,0,0,-17,0,0,0,82,84,10,0,85,-61.77,25,0.0,11.0,-997.0
20.920,0,0,-17,0,0,0,82,84,10,0,85,-61.77,25,0.0,11.0,-997.0
20.983,0,0,-17,0,0,0,82,84,10,0,85,-61.71,25,0.0,9.0,-996.0
21.047,0,0,-17,0,0,0,82,84,10,0,85,-61.7,25,0.0,8.0,-1000.0
21.109,0,0,-17,0,0,0,82,84,10,0,85,-61.7,25,0.0,8.0,-1000.0
21.172,0,0,-17,0,0,0,82,84,10,0,85,-61.7,25,0.0,8.0,-1000.0
21.235,0,0,-17,0,0,0,82,84,10,0,85,-61.72,25,0.0,9.0,-998.0
21.298,0,0,-17,0,0,0,82,84,10,0,85,-61.72,25,0.0,9.0,-998.0
21.360,0,0,-17,0,0,0,82,84,10,0,85,-61.76,25,0.0,9.0,-997.0
21.423,0,0,-17,0,0,0,82,84,10,0,85,-61.77,25,0.0,10.0,-996.0
21.485,0,0,-17,0,0,0,82,84,10,0,85,-61.77,25,0.0,10.0,-996.0
21.547,0,0,-17,0,0,0,82,84,10,0,85,-61.73,25,0.0,9.0,-996.0
21.609,0,0,-17,0,0,0,82,84,10,0,85,-61.73,25,0.0,9.0,-996.0
21.673,0,0,-17,0,0,0,82,84,10,0,85,-61.68,25,0.0,9.0,-995.0
21.736,0,0,-17,0,0,0,82,84,10,0,85,-61.67,25,1.0,9.0,-996.0
21.798,0,0,-17,0,0,0,82,84,10,0,85,-61.67,25,1.0,9.0,-996.0
21.862,0,0,-17,0,0,0,82,84,10,0,85,-61.67,25,1.0,9.0,-996.0
21.925,0,0,-17,0,0,0,83,85,10,0,85,-61.67,25,0.0,9.0,-996.0
21.987,0,0,-17,0,0,0,83,85,10,0,85,-61.73,25,0.0,9.0,-995.0
22.051,0,0,-17,0,0,0,83,85,10,0,85,-61.73,25,0.0,9.0,-995.0
22.113,0,0,-17,0,0,0,83,85,10,0,85,-61.68,25,1.0,10.0,-996.0
22.176,0,0,-17,0,0,0,83,85,10,0,85,-61.8,25,-1.0,10.0,-996.0
22.239,0,0,-17,0,0,0,83,85,10,0,85,-61.8,25,-1.0,10.0,-996.0
22.299,0,0,-17,0,0,0,83,85,10,0,85,-61.8,25,-1.0,10.0,-996.0
22.361,0,0,-17,0,0,0,83,85,10,0,85,-61.78,25,-1.0,9.0,-996.0
22.425,0,0,-17,0,0,0,83,85,10,0,85,-61.75,25,0.0,10.0,-999.0
22.486,0,0,-17,0,0,0,83,85,10,0,85,-61.75,25,0.0,10.0,-999.0
22.549,0,0,-17,0,0,0,83,85,10,0,85,-61.78,25,0.0,9.0,-998.0
22.611,0,0,-17,0,0,0,83,85,10,0,85,-61.79,25,0.0,10.0,-998.0
22.673,0,0,-17,0,0,0,83,85,10,0,85,-61.79,25,0.0,10.0,-998.0
22.736,0,0,-17,0,0,0,83,85,10,0,85,-61.84,25,0.0,8.0,-999.0
22.798,0,0,-17,0,0,0,83,84,10,0,85,-61.86,25,0.0,9.0,-998.0
22.861,0,0,-17,0,0,0,83,84,10,0,85,-61.86,25,0.0,9.0,-998.0
22.923,0,0,-17,0,0,0,83,84,10,0,85,-61.78,25,1.0,9.0,-997.0
22.987,0,0,-17,0,0,0,83,84,10,0,85,-61.78,25,1.0,9.0,-997.0
23.050,0,0,-17,0,0,0,83,84,10,0,85,-61.79,25,0.0,10.0,-996.0
23.112,0,0,-17,0,0,0,83,84,10,0,85,-61.79,25,0.0,10.0,-996.0
23.174,0,0,-17,0,0,0,83,84,10,0,85,-61.81,25,0.0,8.0,-996.0
23.237,0,0,-17,0,0,0,83,84,10,0,85,-61.77,25,-1.0,9.0,-1001.0
23.298,0,0,-17,0,0,0,83,84,10,0,85,-61.77,25,-1.0,9.0,-1001.0
23.361,0,0,-17,0,0,0,83,84,10,0,85,-61.77,25,0.0,9.0,-997.0
23.423,0,0,-17,0,0,0,83,84,10,0,85,-61.79,25,0.0,9.0,-1000.0
23.485,0,0,-17,0,0,0,83,84,10,0,85,-61.79,25,0.0,9.0,-1000.0
23.548,0,0,-17,0,0,0,83,84,10,0,85,-61.8,25,0.0,9.0,-997.0
23.611,0,0,-17,0,0,0,83,84,10,0,85,-61.8,25,0.0,9.0,-997.0
23.673,0,0,-17,0,0,0,83,84,10,0,85,-61.78,25,0.0,9.0,-999.0
23.735,0,0,-17,0,0,0,83,84,10,0,85,-61.78,25,0.0,9.0,-999.0
23.798,0,0,-17,0,0,0,83,84,10,0,85,-61.77,25,0.0,9.0,-998.0
23.860,0,0,-17,0,0,0,82,85,10,0,85,-61.74,25,0.0,8.0,-994.0
23.923,0,0,-17,0,0,0,82,85,10,0,85,-61.74,25,0.0,8.0,-994.0
23.984,0,0,-17,0,0,0,82,85,10,0,85,-61.78,25,0.0,10.0,-1000.0
24.047,0,0,-17,0,0,0,82,85,10,0,85,-61.78,25,0.0,9.0,-999.0
24.111,0,0,-17,0,0,0,82,85,10,0,85,-61.78,25,0.0,9.0,-999.0
24.174,0,0,-17,0,0,0,82,85,10,0,85,-61.77,25,0.0,10.0,-999.0
24.234,0,0,-17,0,0,0,82,85,10,0,85,-61.78,25,0.0,10.0,-999.0
24.296,0,0,-17,0,0,0,82,85,10,0,85,-61.78,25,0.0,10.0,-999.0
24.358,0,0,-17,0,0,0,82,85,10,0,85,-61.74,25,0.0,9.0,-995.0
24.421,0,0,-17,0,0,0,82,85,10,0,85,-61.74,25,0.0,9.0,-995.0
24.484,0,0,-17,0,0,0,82,85,10,0,85,-61.78,25,0.0,9.0,-997.0
24.545,0,0,-17,0,0,0,82,85,10,0,85,-61.78,25,0.0,9.0,-997.0
24.608,0,0,-17,0,0,0,82,85,10,0,85,-61.75,25,0.0,9.0,-997.0
24.670,0,0,-17,0,0,0,82,85,10,0,85,-61.75,25,-2.0,10.0,-996.0
24.732,0,0,-17,0,0,0,82,85,10,0,85,-61.75,25,-2.0,10.0,-996.0
24.795,0,0,-17,0,0,0,82,85,10,0,85,-61.78,25,-2.0,10.0,-998.0
24.858,0,0,-17,0,0,0,83,85,10,0,85,-61.74,25,0.0,9.0,-996.0
24.921,0,0,-17,0,0,0,83,85,10,0,85,-61.74,25,0.0,9.0,-996.0
24.982,0,0,-17,0,0,0,83,85,10,0,85,-61.74,25,-1.0,9.0,-999.0
25.046,0,0,-17,0,0,0,83,85,10,0,85,-61.81,25,0.0,9.0,-999.0
25.108,0,0,-17,0,0,0,83,85,10,0,85,-61.81,25,0.0,9.0,-999.0
25.170,0,0,-17,0,0,0,83,85,10,0,85,-61.81,25,0.0,9.0,-999.0
25.232,0,0,-17,0,0,0,83,85,10,0,85,-61.79,25,0.0,10.0,-1000.0
25.294,0,0,-17,0,0,0,83,85,10,0,85,-61.79,25,0.0,10.0,-1000.0
25.358,0,0,-17,0,0,0,83,85,10,0,85,-61.79,25,0.0,10.0,-1000.0
25.420,0,0,-17,0,0,0,83,85,10,0,85,-61.75,25,0.0,10.0,-1000.0
25.482,0,0,-17,0,0,0,83,85,10,0,85,-61.75,25,-1.0,9.0,-997.0
25.545,0,0,-17,0,0,0,83,85,10,0,85,-61.76,25,0.0,8.0,-997.0
25.607,0,0,-17,0,0,0,83,85,10,0,85,-61.76,25,0.0,8.0,-997.0
25.669,0,0,-17,0,0,0,83,85,10,0,85,-61.76,25,0.0,8.0,-997.0
25.731,0,0,-17,0,0,0,83,85,10,0,85,-61.78,25,0.0,8.0,-1000.0
25.793,0,0,-17,0,0,0,83,85,10,0,85,-61.78,25,0.0,8.0,-1000.0
25.854,0,0,-17,0,0,0,83,85,10,0,85,-61.78,25,0.0,8.0,-1000.0
25.918,0,0,-17,0,0,0,83,85,10,0,85,-61.73,25,0.0,10.0,-998.0
25.980,0,0,-17,0,0,0,83,85,10,0,85,-61.73,25,0.0,10.0,-998.0
26.041,0,0,-17,0,0,0,83,85,10,0,85,-61.8,25,0.0,9.0,-999.0
26.104,0,0,-17,0,0,0,83,85,10,0,85,-61.8,25,0.0,9.0,-999.0
26.166,0,0,-17,0,0,0,83,85,10,0,85,-61.78,25,0.0,10.0,-1001.0
26.229,0,0,-17,0,0,0,83,85,10,0,85,-61.78,25,0.0,10.0,-1001.0
26.292,0,0,-17,0,0,0,83,85,10,0,85,-61.78,25,0.0,10.0,-1001.0
26.356,0,0,-17,0,0,0,83,85,10,0,85,-61.71,25,0.0,10.0,-998.0
26.418,0,0,-17,0,0,0,83,85,10,0,85,-61.71,25,0.0,10.0,-998.0
26.480,0,0,-17,0,0,0,83,85,10,0,85,-61.71,25,0.0,10.0,-998.0
26.543,0,0,-17,0,0,0,83,85,10,0,85,-61.71,25,0.0,7.0,-999.0
26.606,0,0,-17,0,0,0,83,85,10,0,85,-61.71,25,0.0,7.0,-999.0
26.668,0,0,-17,0,0,0,83,85,10,0,85,-61.68,25,0.0,11.0,-1001.0
26.731,0,0,-17,0,0,0,83,85,10,0,85,-61.68,25,0.0,11.0,-1001.0
26.793,0,0,-17,0,0,0,83,85,10,0,85,-61.68,25,0.0,11.0,-1001.0
26.855,0,0,-17,0,0,0,83,85,10,0,85,-61.77,25,-1.0,9.0,-1003.0
26.917,0,0,-17,0,0,0,83,85,10,0,85,-61.77,25,-1.0,9.0,-1003.0
26.979,0,0,-17,0,0,0,83,85,10,0,85,-61.77,25,-1.0,9.0,-1003.0
27.041,0,0,-17,0,0,0,83,85,10,0,85,-61.76,25,-1.0,10.0,-1000.0
27.103,0,0,-17,0,0,0,83,85,10,0,85,-61.76,25,-1.0,10.0,-1000.0
27.165,0,0,-17,0,0,0,83,85,10,0,85,-61.76,25,-1.0,10.0,-1000.0
27.228,0,0,-17,0,0,0,83,85,10,0,85,-61.76,25,-2.0,11.0,-999.0
27.289,0,0,-17,0,0,0,83,85,10,0,85,-61.76,25,0.0,7.0,-1000.0
27.352,0,0,-17,0,0,0,83,85,10,0,85,-61.76,25,0.0,7.0,-1000.0
27.415,0,0,-17,0,0,0,83,85,10,0,85,-61.76,25,0.0,7.0,-1000.0
27.478,0,0,-17,0,0,0,83,85,10,0,85,-61.83,25,0.0,9.0,-1001.0
27.541,0,0,-17,0,0,0,83,85,10,0,85,-61.83,25,0.0,9.0,-1001.0
27.603,0,0,-17,0,0,0,83,85,10,0,85,-61.83,25,0.0,9.0,-1001.0
27.665,0,0,-17,0,0,0,83,85,10,0,85,-61.79,25,0.0,9.0,-996.0
27.729,0,0,-17,0,0,0,83,85,10,0,85,-61.79,25,0.0,9.0,-996.0
27.793,0,0,-17,0,0,0,83,85,10,0,85,-61.8,25,0.0,10.0,-999.0
27.856,0,0,-17,0,0,0,83,85,10,0,85,-61.8,25,0.0,10.0,-999.0
27.919,0,0,-17,0,0,0,83,85,10,0,85,-61.8,25,0.0,10.0,-999.0
27.981,0,0,-17,0,0,0,84,85,10,0,85,-61.82,25,0.0,9.0,-999.0
28.043,0,0,-17,0,0,0,84,85,10,0,85,-61.82,25,0.0,9.0,-999.0
28.104,0,0,-17,0,0,0,84,85,10,0,85,-61.78,25,0.0,9.0,-997.0
28.165,0,0,-17,0,0,0,84,85,10,0,85,-61.78,25,0.0,9.0,-997.0
28.227,0,0,-17,0,0,0,84,85,10,0,85,-61.78,25,0.0,9.0,-997.0
28.289,0,0,-17,0,0,0,84,85,10,0,85,-61.82,25,0.0,10.0,-1000.0
28.350,0,0,-17,0,0,0,84,85,10,0,85,-61.82,25,0.0,10.0,-1000.0
28.413,0,0,-17,0,0,0,84,85,10,0,85,-61.82,25,0.0,10.0,-1000.0
28.475,0,0,-17,0,0,0,84,85,10,0,85,-61.82,25,0.0,10.0,-1000.0
28.537,0,0,-17,0,0,0,84,85,10,0,85,-61.82,25,0.0,10.0,-1000.0
28.598,0,0,-17,0,0,0,84,85,10,0,85,-61.78,25,-1.0,10.0,-998.0
28.660,0,0,-17,0,0,0,84,85,10,0,85,-61.78,25,-1.0,10.0,-998.0
28.722,0,0,-17,0,0,0,84,85,10,0,85,-61.78,25,-1.0,10.0,-998.0
28.786,0,0,-17,0,0,0,84,85,10,0,85,-61.77,25,0.0,10.0,-998.0
28.849,0,0,-17,0,0,0,84,85,10,0,85,-61.77,25,0.0,10.0,-998.0
28.911,0,0,-17,0,0,0,84,85,10,0,85,-61.77,25,0.0,10.0,-998.0
28.974,0,0,-17,0,0,0,83,85,10,0,85,-61.77,25,0.0,11.0,-1000.0
29.037,0,0,-17,0,0,0,83,85,10,0,85,-61.77,25,0.0,11.0,-1000.0
29.099,0,0,-17,0,0,0,83,85,10,0,85,-61.77,25,0.0,11.0,-1000.0
29.161,0,0,-17,0,0,0,83,85,10,0,85,-61.77,25,0.0,11.0,-1000.0
29.222,0,0,-17,0,0,0,83,85,10,0,85,-61.78,25,0.0,8.0,-1000.0
29.286,0,0,-17,0,0,0,83,85,10,0,85,-61.78,25,0.0,8.0,-1000.0
29.349,0,0,-17,0,0,0,83,85,10,0,85,-61.78,25,0.0,8.0,-1000.0
29.411,0,0,-17,0,0,0,83,85,10,0,85,-61.73,25,-2.0,10.0,-1002.0
29.474,0,0,-17,0,0,0,83,85,10,0,85,-61.73,25,0.0,9.0,-999.0
29.536,0,0,-17,0,0,0,83,85,10,0,85,-61.73,25,0.0,9.0,-999.0
29.600,0,0,-17,0,0,0,83,85,10,0,85,-61.77,25,0.0,9.0,-1003.0
29.662,0,0,-17,0,0,0,83,85,10,0,85,-61.8,25,0.0,9.0,-999.0
29.725,0,0,-17,0,0,0,83,85,10,0,85,-61.8,25,0.0,9.0,-999.0
29.788,0,0,-17,0,0,0,83,85,10,0,85,-61.78,25,0.0,10.0,-1001.0
29.851,0,0,-17,0,0,0,84,86,10,0,85,-61.73,25,0.0,10.0,-998.0
29.915,0,0,-17,0,0,0,84,86,10,0,85,-61.73,25,0.0,10.0,-998.0
29.978,0,0,-17,0,0,0,84,86,10,0,85,-61.73,25,0.0,10.0,-998.0
