time_elapsed,pitch,roll,yaw,vgx,vgy,vgz,templ,temph,tof,h,bat,baro,time,agx,agy,agz
0.000,-2,-1,-1,0,0,0,83,85,80,60,74,-60.94,19,-27.0,36.0,-1003.0
0.062,-1,-1,-1,0,0,0,83,85,80,60,74,-61.05,19,-10.0,23.0,-990.0
0.123,-1,-1,-1,0,0,0,83,85,80,60,74,-61.05,19,-10.0,23.0,-990.0
0.185,-1,0,-1,0,0,0,83,85,80,60,74,-61.04,20,-15.0,22.0,-976.0
0.248,-1,0,0,0,0,0,83,85,80,60,74,-61.03,20,-20.0,29.0,-979.0
0.313,0,-1,0,0,0,0,83,85,80,60,74,-61.0,20,-3.0,32.0,-974.0
0.374,0,-1,0,0,0,0,83,85,80,60,74,-61.0,20,-3.0,32.0,-974.0
0.437,0,-1,-1,0,0,0,83,85,80,60,74,-60.97,20,16.0,41.0,-971.0
0.499,0,-2,-1,0,0,0,83,85,79,50,74,-60.93,20,-2.0,19.0,-982.0
0.561,0,-2,-1,0,0,0,83,85,79,50,74,-60.93,20,-2.0,19.0,-982.0
0.624,0,-1,-1,0,0,0,83,85,79,50,74,-61.01,20,5.0,26.0,-981.0
0.686,0,-1,-1,0,0,0,83,85,79,50,74,-61.01,20,5.0,26.0,-981.0
0.747,0,-1,-1,0,0,0,83,85,78,50,74,-60.91,20,12.0,37.0,-998.0
0.810,0,-1,-1,0,0,0,83,85,78,50,74,-60.91,20,12.0,37.0,-998.0
0.873,0,-2,-1,0,0,0,83,85,77,50,74,-60.88,20,-18.0,36.0,-993.0
0.935,0,0,-1,0,0,0,83,85,77,50,74,-60.47,20,-7.0,24.0,-996.0
0.998,-4,0,1,0,0,0,83,85,76,50,74,-60.44,20,-40.0,12.0,-958.0
1.061,-4,0,1,0,0,0,83,85,76,50,74,-60.44,20,-40.0,12.0,-958.0
1.124,-4,0,1,0,0,0,83,85,76,50,74,-60.44,20,-40.0,12.0,-958.0
1.188,-3,-4,6,0,0,-1,83,85,78,50,74,-61.18,21,-139.0,41.0,-929.0
1.251,2,-3,4,1,0,0,83,85,78,50,74,-61.0,21,76.0,32.0,-1061.0
1.314,2,-3,4,1,0,0,83,85,78,50,74,-61.0,21,76.0,32.0,-1061.0
1.380,2,-1,0,0,0,0,83,85,78,50,74,-61.05,21,0.0,52.0,-1025.0
1.441,1,-2,-1,0,0,0,83,85,78,50,74,-60.89,21,-40.0,65.0,-960.0
1.504,1,-2,-1,0,0,0,83,85,78,50,74,-60.89,21,-40.0,65.0,-960.0
1.567,-3,-4,-1,-1,0,0,83,85,77,50,74,-60.59,21,-24.0,47.0,-867.0
1.629,-8,-5,1,-1,-1,0,83,85,78,50,74,-60.39,21,-83.0,31.0,-986.0
1.692,-8,-5,1,-1,-1,0,83,85,78,50,74,-60.39,21,-83.0,31.0,-986.0
1.756,-5,1,2,0,-3,0,83,85,77,50,74,-60.87,21,-153.0,-17.0,-1013.0
1.820,1,4,0,1,-2,0,82,85,76,50,74,-60.98,21,99.0,6.0,-950.0
1.884,1,4,0,1,-2,0,82,85,76,50,74,-60.98,21,99.0,6.0,-950.0
1.947,1,4,0,1,-2,0,82,85,76,50,74,-60.98,21,99.0,6.0,-950.0
2.009,5,1,-1,1,-1,0,82,85,74,50,74,-61.18,21,20.0,24.0,-1052.0
2.072,4,0,-1,1,0,0,82,85,74,50,74,-61.08,21,10.0,12.0,-1050.0
2.135,4,0,-1,1,0,0,82,85,74,50,74,-61.08,21,10.0,12.0,-1050.0
2.197,2,0,-1,0,0,0,82,85,74,50,74,-60.99,22,7.0,17.0,-1026.0
2.260,1,-1,-1,0,0,0,82,85,74,50,74,-61.01,22,27.0,20.0,-1015.0
2.322,1,-1,-1,0,0,0,82,85,74,50,74,-61.01,22,27.0,20.0,-1015.0
2.385,0,-1,-1,0,0,0,82,85,74,50,74,-60.97,22,2.0,20.0,-1006.0
2.447,0,-1,-1,0,-1,0,82,85,75,50,74,-60.9,22,17.0,5.0,-1005.0
2.509,0,-1,-1,0,-1,0,82,85,75,50,74,-60.9,22,17.0,5.0,-1005.0
2.571,0,-1,-1,0,-1,0,82,85,76,50,74,-60.98,22,5.0,13.0,-1000.0
2.634,0,0,-1,0,-1,0,82,85,77,50,74,-61.01,22,-7.0,10.0,-986.0
2.698,0,0,-1,0,-1,0,82,85,77,50,74,-61.01,22,-7.0,10.0,-986.0
2.759,0,0,-1,0,-1,0,82,85,77,50,74,-61.01,22,-7.0,10.0,-986.0
2.823,0,0,-1,0,-1,0,82,85,78,50,74,-60.99,22,-8.0,13.0,-973.0
2.884,0,-1,-1,0,-1,0,83,84,78,50,74,-60.92,22,-1.0,-2.0,-978.0
2.946,0,-1,-1,0,-1,0,83,84,78,50,74,-60.92,22,-1.0,-2.0,-978.0
3.008,0,0,-1,0,-1,0,83,84,79,50,74,-60.93,22,8.0,0.0,-972.0
3.070,0,0,-1,0,-1,0,83,84,79,60,74,-60.99,22,4.0,4.0,-986.0
3.133,0,0,-1,0,-1,0,83,84,79,60,74,-60.99,22,4.0,4.0,-986.0
3.195,0,0,-1,0,-1,0,83,84,79,60,74,-60.99,23,-8.0,14.0,-999.0
3.257,0,0,-1,0,-1,0,83,84,79,60,74,-60.98,23,3.0,11.0,-991.0
3.320,0,0,-1,0,-1,0,83,84,79,60,74,-60.98,23,3.0,11.0,-991.0
3.382,0,0,-1,0,-1,0,83,84,79,60,74,-60.98,23,3.0,11.0,-991.0
3.446,0,0,-1,0,0,0,83,84,79,50,74,-60.97,23,-12.0,21.0,-985.0
3.507,0,0,-1,0,0,0,83,84,79,50,74,-60.97,23,-12.0,21.0,-985.0
3.571,0,0,-1,0,0,0,83,84,79,50,74,-60.97,23,-12.0,21.0,-985.0
3.634,0,-1,-1,0,0,0,83,84,78,50,74,-61.0,23,-12.0,13.0,-996.0
3.696,0,-1,-1,0,0,0,83,84,78,50,74,-61.01,23,-17.0,16.0,-988.0
3.760,0,-1,-1,0,0,0,83,84,78,50,74,-61.01,23,-17.0,16.0,-988.0
3.821,0,-1,-1,0,0,0,83,84,77,50,74,-60.97,23,-32.0,2.0,-996.0
3.884,0,3,-1,0,0,0,83,85,77,50,74,-61.46,23,-59.0,34.0,-1055.0
3.946,0,3,-1,0,0,0,83,85,77,50,74,-61.46,23,-59.0,34.0,-1055.0
4.008,0,2,-1,0,0,-1,83,85,78,50,74,-61.31,23,-61.0,29.0,-1166.0
4.070,-4,3,-1,-1,1,-2,83,85,81,50,74,-61.14,23,-11.0,74.0,-1031.0
4.131,0,-6,-1,0,2,-2,83,85,83,60,74,-61.13,24,10.0,52.0,-833.0
4.193,0,-6,-1,0,2,-2,83,85,83,60,74,-61.13,24,10.0,52.0,-833.0
4.255,0,-7,-1,0,1,0,83,85,83,60,74,-61.14,24,-17.0,67.0,-851.0
4.318,0,-8,-1,0,1,1,83,85,83,60,74,-60.8,24,-94.0,71.0,-918.0
4.380,0,-8,-1,0,1,1,83,85,83,60,74,-60.8,24,-94.0,71.0,-918.0
4.442,-2,-9,0,-1,0,1,83,85,82,60,74,-60.14,24,-145.0,-18.0,-1023.0
4.505,-2,-9,0,-1,0,1,83,85,82,60,74,-60.14,24,-145.0,-18.0,-1023.0
4.567,-10,-6,6,0,-1,1,83,85,81,50,74,-59.99,24,187.0,-38.0,-960.0
4.629,-9,-5,13,2,-1,2,83,85,78,50,74,-60.9,24,108.0,28.0,-1002.0
4.693,-9,-5,13,2,-1,2,83,85,78,50,74,-60.9,24,108.0,28.0,-1002.0
4.757,1,0,10,5,-2,1,83,85,74,50,74,-61.23,24,-5.0,59.0,-1042.0
4.820,1,0,10,5,-2,1,83,85,74,50,74,-61.23,24,-5.0,59.0,-1042.0
4.882,7,0,0,4,-1,1,82,85,72,50,74,-61.16,24,-1.0,6.0,-1091.0
4.945,6,0,-2,2,-1,1,82,85,71,50,74,-61.06,24,-12.0,18.0,-1062.0
5.007,6,0,-2,2,-1,1,82,85,71,50,74,-61.06,24,-12.0,18.0,-1062.0
5.070,5,0,-3,1,-1,0,82,85,70,50,74,-61.07,24,8.0,-6.0,-1043.0
5.133,2,0,-2,0,0,0,82,85,70,50,74,-61.06,25,-10.0,21.0,-999.0
5.195,2,0,-2,0,0,0,82,85,70,50,74,-61.06,25,-10.0,21.0,-999.0
5.257,1,-1,-2,0,0,0,82,85,70,50,74,-61.11,25,-22.0,3.0,-1044.0
5.320,1,-1,-2,0,0,0,82,85,70,50,74,-61.11,25,-22.0,3.0,-1044.0
5.382,0,-1,-2,0,-1,0,82,85,70,50,74,-61.11,25,-31.0,3.0,-1045.0
5.445,0,0,-1,0,-1,0,82,85,71,50,74,-61.13,25,-45.0,15.0,-1002.0
5.509,0,0,-1,0,-1,0,82,85,71,50,74,-61.13,25,-45.0,15.0,-1002.0
5.570,-1,0,-1,0,-1,-1,82,85,73,50,74,-61.13,25,-39.0,8.0,-1004.0
5.633,-1,0,-1,0,-1,-1,82,85,73,50,74,-61.13,25,-39.0,8.0,-1004.0
5.696,-1,0,-1,0,-1,-1,82,85,75,50,74,-61.06,25,-47.0,7.0,-981.0
5.759,-1,0,-1,0,-1,0,82,85,75,50,74,-61.11,25,-62.0,20.0,-986.0
5.822,-1,0,-1,0,-1,0,82,85,75,50,74,-61.11,25,-62.0,20.0,-986.0
5.885,-1,0,-1,0,0,0,83,84,76,50,74,-61.01,25,-46.0,0.0,-997.0
5.947,-1,0,-1,0,0,0,83,84,76,50,74,-61.01,25,-46.0,0.0,-997.0
6.010,-1,0,-1,0,0,0,83,84,77,50,74,-61.03,25,-33.0,2.0,-968.0
6.072,-1,-1,-1,0,-1,0,83,84,78,50,74,-61.05,25,-46.0,13.0,-990.0
6.136,-1,-1,-1,0,-1,0,83,84,78,50,74,-61.05,25,-46.0,13.0,-990.0
6.199,-1,-1,-1,0,0,0,83,84,78,50,74,-61.27,26,-54.0,16.0,-977.0
6.262,-1,0,-1,0,0,0,83,84,78,50,74,-61.16,26,-59.0,18.0,-993.0
6.325,-1,0,-1,0,0,0,83,84,78,50,74,-61.16,26,-59.0,18.0,-993.0
6.387,-2,0,-1,0,0,0,83,84,79,50,74,-61.07,26,-53.0,34.0,-954.0
6.449,-2,0,-1,0,0,0,83,84,79,50,74,-61.07,26,-53.0,34.0,-954.0
6.512,-2,0,-1,0,0,0,83,84,79,50,74,-61.0,26,-54.0,38.0,-1042.0
6.573,-1,2,0,0,0,0,83,84,78,50,74,-61.35,26,-32.0,117.0,-1054.0
6.635,-1,2,0,0,0,0,83,84,78,50,74,-61.35,26,-32.0,117.0,-1054.0
6.698,-2,3,-1,0,2,0,83,84,79,50,74,-61.76,26,-40.0,160.0,-1184.0
6.761,-2,3,-1,0,2,0,83,84,79,50,74,-61.76,26,-40.0,160.0,-1184.0
6.823,0,-1,-1,0,4,-2,83,84,81,50,74,-61.58,26,-22.0,108.0,-945.0
6.885,1,-6,-1,0,4,-1,82,85,83,60,74,-61.21,26,-25.0,115.0,-895.0
6.947,1,-6,-1,0,4,-1,82,85,83,60,74,-61.21,26,-25.0,115.0,-895.0
7.008,1,-6,-1,0,4,0,82,85,84,60,74,-61.09,26,-65.0,87.0,-959.0
7.070,-1,-6,-1,0,4,0,82,85,83,60,74,-60.61,26,-21.0,146.0,-870.0
7.133,-1,-6,-1,0,4,0,82,85,83,60,74,-60.61,26,-21.0,146.0,-870.0
7.194,0,-6,-1,0,5,1,82,85,81,60,74,-60.6,27,33.0,146.0,-848.0
7.257,0,-6,-1,0,5,1,82,85,81,60,74,-60.6,27,33.0,146.0,-848.0
7.321,2,-9,-1,0,5,2,82,85,79,50,74,-59.62,27,35.0,26.0,-990.0
7.383,0,-17,-2,0,2,3,82,85,78,50,74,-60.85,27,-72.0,-179.0,-1216.0
7.446,0,-17,-2,0,2,3,82,85,78,50,74,-60.85,27,-72.0,-179.0,-1216.0
7.509,0,-17,-2,0,2,3,82,85,78,50,74,-60.85,27,-72.0,-179.0,-1216.0
7.571,0,-17,-2,0,2,3,82,85,78,50,74,-60.85,27,-72.0,-179.0,-1216.0
7.633,0,-17,-2,0,2,3,82,85,78,50,74,-60.85,27,-72.0,-179.0,-1216.0
7.696,1,6,0,0,-2,0,82,85,70,50,74,-61.14,27,-28.0,58.0,-1031.0
7.759,1,6,0,0,-2,0,82,85,70,50,74,-61.14,27,-28.0,58.0,-1031.0
7.821,0,1,0,0,-1,0,82,85,71,50,74,-61.02,27,5.0,0.0,-1093.0
7.884,0,1,0,0,-1,0,82,85,71,50,74,-61.02,27,5.0,0.0,-1093.0
7.945,0,-1,0,0,0,-1,82,84,71,50,74,-61.1,27,18.0,18.0,-1054.0
8.008,1,-1,0,0,0,-1,82,84,73,50,74,-61.12,27,32.0,30.0,-1010.0
8.071,1,-1,0,0,0,-1,82,84,73,50,74,-61.12,27,32.0,30.0,-1010.0
8.135,1,-1,-1,0,0,-1,82,84,74,50,74,-61.07,27,39.0,14.0,-987.0
8.198,1,-1,-1,0,0,-1,82,84,74,50,74,-61.07,27,39.0,14.0,-987.0
8.261,1,-1,-1,0,0,-1,82,84,74,50,74,-61.07,27,39.0,14.0,-987.0
8.324,2,-1,-1,0,-1,-1,82,84,76,50,74,-60.94,28,13.0,-6.0,-980.0
8.386,2,0,-1,1,-1,0,82,84,77,40,74,-60.94,28,0.0,-3.0,-1012.0
8.449,2,0,-1,1,-1,0,82,84,77,40,74,-60.94,28,0.0,-3.0,-1012.0
8.512,2,0,-1,1,-1,0,82,84,77,40,74,-60.94,28,0.0,-3.0,-1012.0
8.576,2,0,-1,0,-1,0,82,84,79,40,74,-60.95,28,-54.0,-8.0,-1054.0
8.638,2,0,-1,0,-1,0,82,84,79,40,74,-60.95,28,-54.0,-8.0,-1054.0
8.702,2,0,-1,0,-1,0,82,84,79,40,74,-60.95,28,-54.0,-8.0,-1054.0
8.765,0,0,-1,0,-1,0,82,84,82,40,74,-60.97,28,-39.0,-7.0,-1040.0
8.829,0,0,-1,0,-1,0,82,84,84,40,74,-60.92,28,-28.0,-21.0,-1022.0
8.890,0,0,-1,0,-1,0,82,84,84,40,74,-60.92,28,-28.0,-21.0,-1022.0
8.953,0,0,-1,0,-1,0,82,84,84,40,74,-60.92,28,-28.0,-21.0,-1022.0
9.015,0,0,-1,0,-1,0,83,85,91,50,74,-60.95,28,-38.0,0.0,-998.0
9.077,0,0,-1,0,-1,0,83,85,91,50,74,-60.95,28,-38.0,0.0,-998.0
9.139,0,0,0,0,-1,-1,83,85,94,50,74,-60.93,28,-46.0,0.0,-969.0
9.201,0,0,0,0,0,-1,83,85,97,50,74,-60.9,29,-53.0,-3.0,-973.0
9.264,0,0,0,0,0,-1,83,85,97,50,74,-60.9,29,-53.0,-3.0,-973.0
9.326,0,0,0,0,0,-1,83,85,100,50,74,-60.88,29,-49.0,1.0,-970.0
9.389,0,0,0,0,0,-1,83,85,100,50,74,-60.88,29,-49.0,1.0,-970.0
9.450,-1,0,0,0,-1,0,83,85,103,60,74,-60.85,29,-47.0,10.0,-958.0
9.513,-1,0,0,0,-1,0,83,85,103,60,74,-60.85,29,-47.0,10.0,-958.0
9.575,-1,0,0,0,-1,0,83,85,105,60,74,-60.83,29,-52.0,23.0,-947.0
9.638,-1,0,0,0,0,0,83,85,107,60,74,-60.79,29,-56.0,21.0,-954.0
9.701,-1,0,0,0,0,0,83,85,107,60,74,-60.79,29,-56.0,21.0,-954.0
9.763,-1,0,0,0,0,0,83,85,107,60,74,-60.79,29,-56.0,21.0,-954.0
9.826,-1,0,0,0,0,0,83,85,107,60,74,-60.79,29,-56.0,21.0,-954.0
9.887,-1,-1,0,0,0,0,83,85,111,60,74,-60.71,29,-25.0,54.0,-951.0
9.949,-1,-1,0,0,0,0,82,84,111,70,74,-60.75,29,-19.0,54.0,-1019.0
