time_elapsed,pitch,roll,yaw,vgx,vgy,vgz,templ,temph,tof,h,bat,baro,time,agx,agy,agz
0.000,0,0,0,0,0,0,59,61,80,60,100,-63.08,6,10.0,18.0,-970.0
0.061,0,0,0,0,0,0,59,61,80,60,100,-63.08,6,10.0,18.0,-970.0
0.124,0,0,0,0,0,0,59,61,80,60,100,-63.06,6,-31.0,49.0,-1010.0
0.186,0,0,0,0,0,0,59,61,80,60,100,-63.09,6,0.0,24.0,-1013.0
0.246,0,0,0,0,0,0,59,61,80,60,100,-63.09,6,0.0,24.0,-1013.0
0.308,0,0,0,0,0,0,59,61,80,60,100,-63.11,6,9.0,4.0,-1010.0
0.370,0,0,0,0,0,0,59,61,80,60,100,-63.11,6,9.0,4.0,-1010.0
0.432,0,0,0,0,0,0,59,62,81,60,100,-63.1,6,5.0,8.0,-1007.0
0.494,0,0,0,0,0,0,59,62,81,60,100,-63.14,6,-2.0,17.0,-989.0
0.555,0,0,0,0,0,0,59,62,81,60,100,-63.14,6,-2.0,17.0,-989.0
0.619,0,0,0,0,0,0,59,62,81,60,100,-63.09,6,0.0,3.0,-1002.0
0.682,0,0,0,0,0,0,59,62,81,60,100,-63.09,6,0.0,3.0,-1002.0
0.743,0,0,0,0,0,0,59,62,81,60,100,-63.1,6,7.0,0.0,-997.0
0.805,1,-1,-4,0,0,0,59,62,81,60,100,-63.0,7,0.0,-7.0,-1002.0
0.867,1,-1,-4,0,0,0,59,62,81,60,100,-63.0,7,0.0,-7.0,-1002.0
0.929,0,-2,-9,0,0,0,59,62,81,60,100,-63.08,7,-2.0,4.0,-992.0
0.991,0,-2,-9,0,0,0,59,62,81,60,100,-63.08,7,-2.0,4.0,-992.0
1.052,0,0,-4,0,0,0,59,62,82,60,100,-63.09,7,-489.0,-580.0,-566.0
1.115,0,0,0,0,0,0,59,62,82,60,100,-63.1,7,18.0,-13.0,-1102.0
1.176,0,0,0,0,0,0,59,62,82,60,100,-63.1,7,18.0,-13.0,-1102.0
1.239,0,0,0,0,0,0,59,62,82,60,100,-63.05,7,15.0,18.0,-977.0
1.301,0,0,0,0,0,0,59,62,82,60,100,-63.05,7,15.0,18.0,-977.0
1.363,0,0,0,0,0,0,60,62,82,60,100,-63.02,7,8.0,9.0,-1000.0
1.425,0,0,0,0,0,0,60,62,82,60,100,-63.02,7,8.0,9.0,-1000.0
1.487,0,0,0,0,0,0,60,62,82,60,100,-63.08,7,4.0,15.0,-997.0
1.549,0,0,0,0,0,0,60,62,82,60,100,-63.08,7,4.0,15.0,-997.0
1.611,0,0,0,0,0,0,60,62,83,60,100,-63.12,7,4.0,7.0,-1000.0
1.673,0,0,0,0,0,0,60,62,82,60,100,-63.06,7,2.0,14.0,-994.0
1.734,0,0,0,0,0,0,60,62,82,60,100,-63.06,7,2.0,14.0,-994.0
1.797,0,0,4,0,0,0,60,62,82,60,100,-63.1,8,8.0,6.0,-997.0
1.859,0,0,4,0,0,0,60,62,82,60,100,-63.1,8,8.0,6.0,-997.0
1.922,0,0,7,0,0,0,60,62,82,60,100,-63.06,8,5.0,1.0,-1000.0
1.984,0,0,11,0,0,0,60,62,82,60,100,-63.1,8,0.0,2.0,-1002.0
2.044,0,0,11,0,0,0,60,62,82,60,100,-63.1,8,0.0,2.0,-1002.0
2.107,0,0,15,0,0,0,60,62,81,60,100,-63.04,8,-2.0,6.0,-1003.0
2.168,0,0,15,0,0,0,60,62,81,60,100,-63.04,8,-2.0,6.0,-1003.0
2.231,0,0,18,0,0,0,60,62,82,60,100,-63.08,8,1.0,0.0,-1004.0
2.293,0,0,22,0,0,0,60,62,82,60,100,-63.1,8,1.0,3.0,-1000.0
2.355,0,0,22,0,0,0,60,62,82,60,100,-63.1,8,1.0,3.0,-1000.0
2.418,0,0,25,0,0,0,60,62,82,60,100,-63.09,8,-2.0,8.0,-999.0
2.480,0,0,29,0,0,0,60,62,81,60,100,-63.04,8,-1.0,7.0,-991.0
2.542,0,0,29,0,0,0,60,62,81,60,100,-63.04,8,-1.0,7.0,-991.0
2.603,0,0,32,0,0,0,60,62,80,60,100,-63.13,8,-1.0,3.0,-1000.0
2.665,0,0,32,0,0,0,60,62,80,60,100,-63.13,8,-1.0,3.0,-1000.0
2.726,0,0,35,0,0,0,60,62,81,60,100,-63.15,8,0.0,-1.0,-998.0
2.788,0,0,39,0,0,0,60,62,80,60,100,-63.13,9,-2.0,6.0,-995.0
2.851,0,0,39,0,0,0,60,62,80,60,100,-63.13,9,-2.0,6.0,-995.0
2.913,0,0,42,0,0,0,60,62,80,60,100,-63.13,9,-12.0,0.0,-998.0
2.974,0,0,42,0,0,0,60,62,80,60,100,-63.13,9,-12.0,0.0,-998.0
3.038,0,0,45,0,0,0,60,62,80,60,100,-63.12,9,-19.0,10.0,-1009.0
3.099,0,0,48,0,0,0,60,62,80,60,100,-63.15,9,-13.0,8.0,-1007.0
3.161,0,0,48,0,0,0,60,62,80,60,100,-63.15,9,-13.0,8.0,-1007.0
3.222,0,0,51,0,0,0,60,62,80,60,100,-63.05,9,-10.0,4.0,-1006.0
3.284,0,0,51,0,0,0,60,62,80,60,100,-63.05,9,-10.0,4.0,-1006.0
3.347,0,0,54,0,0,0,60,62,80,60,100,-63.09,9,-12.0,0.0,-997.0
3.410,0,0,57,0,0,0,60,62,79,60,100,-63.09,9,-20.0,5.0,-1006.0
3.473,0,0,57,0,0,0,60,62,79,60,100,-63.09,9,-20.0,5.0,-1006.0
3.535,0,0,60,0,0,0,60,62,80,60,100,-63.0,9,-12.0,-5.0,-998.0
3.595,0,0,60,0,0,0,60,62,80,60,100,-63.0,9,-12.0,-5.0,-998.0
3.658,0,0,63,0,0,0,60,62,79,60,100,-63.05,9,-8.0,3.0,-1001.0
3.720,0,0,66,0,0,0,60,62,78,60,100,-63.08,9,-5.0,3.0,-1001.0
3.781,0,0,66,0,0,0,60,62,78,60,100,-63.08,9,-5.0,3.0,-1001.0
3.845,0,0,69,0,0,0,60,62,79,60,100,-63.07,10,0.0,-1.0,-984.0
3.906,0,0,72,0,0,0,60,62,79,60,100,-63.06,10,-13.0,7.0,-1015.0
3.968,0,0,74,0,0,0,60,62,79,60,100,-62.99,10,-17.0,-1.0,-1007.0
4.030,0,0,74,0,0,0,60,62,79,60,100,-62.99,10,-17.0,-1.0,-1007.0
4.093,0,0,77,0,0,0,60,62,78,60,100,-63.07,10,-9.0,-4.0,-992.0
4.156,0,0,77,0,0,0,60,62,78,60,100,-63.07,10,-9.0,-4.0,-992.0
4.218,0,1,82,0,0,0,60,62,79,60,100,-62.99,10,-6.0,1.0,-1000.0
4.279,9,2,79,0,0,0,60,62,79,60,100,-62.95,10,-14.0,5.0,-997.0
4.341,9,2,79,0,0,0,60,62,79,60,100,-62.95,10,-14.0,5.0,-997.0
4.403,-2,-1,64,0,0,0,60,62,79,60,100,-63.08,10,-1047.0,-1044.0,-763.0
4.465,-1,0,57,0,0,0,60,62,81,60,100,-63.08,10,-283.0,-269.0,-1224.0
4.527,-1,0,57,0,0,0,60,62,81,60,100,-63.08,10,-283.0,-269.0,-1224.0
4.590,-1,0,61,0,0,0,60,62,81,60,100,-63.07,10,129.0,-11.0,-950.0
4.651,-1,0,61,0,0,0,60,62,81,60,100,-63.07,10,129.0,-11.0,-950.0
4.713,0,0,65,0,0,0,60,62,81,60,100,-63.06,10,58.0,5.0,-956.0
4.775,0,0,70,0,0,0,60,62,81,60,100,-63.07,11,14.0,22.0,-941.0
4.837,0,0,70,0,0,0,60,62,81,60,100,-63.07,11,14.0,22.0,-941.0
4.898,0,0,74,0,0,0,60,62,81,60,100,-63.09,11,15.0,24.0,-971.0
4.960,0,0,74,0,0,0,60,62,81,60,100,-63.09,11,15.0,24.0,-971.0
