time_elapsed,pitch,roll,yaw,vgx,vgy,vgz,templ,temph,tof,h,bat,baro,time,agx,agy,agz
0.000,1,-1,0,0,0,0,52,55,82,70,100,-65.8,5,11.0,2.0,-995.0
0.061,1,-1,0,0,0,0,52,55,82,70,100,-65.8,5,11.0,2.0,-995.0
0.123,1,0,0,0,0,0,52,55,82,70,100,-65.76,6,14.0,11.0,-995.0
0.185,1,0,0,0,0,0,52,55,81,70,100,-65.75,6,9.0,2.0,-995.0
0.248,1,0,0,0,0,0,52,55,81,70,100,-65.75,6,9.0,2.0,-995.0
0.310,1,0,0,0,0,0,52,55,81,70,100,-65.75,6,14.0,1.0,-995.0
0.372,1,0,0,0,0,0,52,55,81,70,100,-65.75,6,14.0,1.0,-995.0
0.435,1,0,0,0,0,0,52,55,81,70,100,-65.8,6,22.0,0.0,-988.0
0.497,1,0,0,0,0,0,52,55,81,70,100,-65.79,6,21.0,3.0,-991.0
0.559,1,0,0,0,0,0,52,55,81,70,100,-65.79,6,21.0,3.0,-991.0
0.622,1,0,0,0,0,0,52,55,81,70,100,-65.71,6,11.0,13.0,-1015.0
0.684,1,0,0,0,0,0,52,55,81,70,100,-65.71,6,11.0,13.0,-1015.0
0.746,1,0,0,0,0,0,52,55,81,70,100,-65.78,6,9.0,2.0,-994.0
0.808,1,0,0,0,0,0,51,54,81,70,100,-65.82,6,17.0,-1.0,-1000.0
0.871,1,0,0,0,0,0,51,54,81,70,100,-65.82,6,17.0,-1.0,-1000.0
0.933,1,0,0,0,0,0,51,54,81,70,100,-65.78,6,10.0,1.0,-998.0
0.995,1,0,0,0,0,0,51,54,81,70,100,-65.71,6,15.0,-11.0,-985.0
1.057,1,0,0,0,0,0,51,54,81,70,100,-65.74,7,17.0,3.0,-1007.0
1.119,1,0,0,0,0,0,51,54,81,70,100,-65.74,7,17.0,3.0,-1007.0
1.183,1,-1,0,0,0,0,51,54,82,70,100,-65.8,7,14.0,-2.0,-999.0
1.246,1,-1,0,0,0,0,51,54,82,70,100,-65.8,7,14.0,-2.0,-999.0
1.308,1,-1,1,0,0,0,51,54,82,70,100,-65.77,7,14.0,0.0,-1005.0
1.370,0,0,3,0,0,0,51,54,81,70,100,-65.73,7,10.0,-1.0,-1000.0
1.432,0,0,3,0,0,0,51,54,81,70,100,-65.73,7,10.0,-1.0,-1000.0
1.495,0,0,6,0,0,0,51,54,82,70,100,-65.73,7,8.0,-4.0,-995.0
1.558,0,0,6,0,0,0,51,54,82,70,100,-65.73,7,8.0,-4.0,-995.0
1.620,0,0,9,0,0,0,51,54,82,70,100,-65.75,7,15.0,1.0,-994.0
1.683,0,0,12,0,0,0,51,54,82,70,100,-65.81,7,12.0,-2.0,-998.0
1.745,0,0,12,0,0,0,51,54,82,70,100,-65.81,7,12.0,-2.0,-998.0
1.806,0,0,15,0,0,0,53,54,82,70,100,-65.77,7,3.0,-7.0,-993.0
1.869,0,0,18,0,0,0,53,54,82,70,100,-65.73,7,6.0,1.0,-1002.0
1.930,0,0,18,0,0,0,53,54,82,70,100,-65.73,7,6.0,1.0,-1002.0
1.992,0,0,21,1,0,0,53,54,82,70,100,-65.75,7,5.0,4.0,-1004.0
2.054,0,0,21,1,0,0,53,54,82,70,100,-65.75,7,5.0,4.0,-1004.0
2.116,0,0,24,1,0,0,53,54,82,70,100,-65.76,8,3.0,-4.0,-990.0
2.178,0,0,27,1,0,0,53,54,82,70,100,-65.75,8,11.0,0.0,-1001.0
2.240,0,0,27,1,0,0,53,54,82,70,100,-65.75,8,11.0,0.0,-1001.0
2.302,0,0,30,1,0,0,53,54,81,70,100,-65.78,8,5.0,-4.0,-992.0
2.363,0,0,30,1,0,0,53,54,81,70,100,-65.78,8,5.0,-4.0,-992.0
2.425,0,0,33,1,0,0,53,54,82,70,100,-65.71,8,-1.0,-9.0,-990.0
2.486,0,0,36,1,0,0,53,54,82,70,100,-65.72,8,2.0,2.0,-1006.0
2.548,0,0,36,1,0,0,53,54,82,70,100,-65.72,8,2.0,2.0,-1006.0
2.628,0,0,39,1,0,0,53,54,81,70,100,-65.78,8,0.0,0.0,-997.0
2.690,0,0,42,1,0,0,53,54,81,70,100,-65.74,8,-4.0,2.0,-995.0
2.752,0,0,42,1,0,0,53,54,81,70,100,-65.74,8,-4.0,2.0,-995.0
2.815,0,0,48,1,1,0,53,56,81,70,100,-65.71,8,-10.0,-6.0,-991.0
2.878,0,0,48,1,1,0,53,56,81,70,100,-65.71,8,-10.0,-6.0,-991.0
2.939,0,0,51,1,1,0,53,56,81,70,100,-65.76,8,0.0,4.0,-1008.0
3.001,0,0,54,1,1,0,53,56,80,70,99,-65.75,9,0.0,2.0,-1002.0
3.064,0,0,54,1,1,0,53,56,80,70,99,-65.75,9,0.0,2.0,-1002.0
3.126,0,0,57,1,1,0,53,56,80,70,99,-65.8,9,-2.0,0.0,-998.0
3.188,0,0,57,1,1,0,53,56,80,70,99,-65.8,9,-2.0,0.0,-998.0
3.249,0,0,59,1,1,0,53,56,80,70,99,-65.75,9,6.0,1.0,-1002.0
3.315,0,0,62,1,1,0,53,56,80,70,99,-65.76,9,-2.0,-5.0,-991.0
3.375,0,0,62,1,1,0,53,56,80,70,99,-65.76,9,-2.0,-5.0,-991.0
3.437,0,0,65,1,1,0,53,56,80,70,99,-65.77,9,1.0,5.0,-1007.0
3.499,0,0,68,1,1,0,53,56,80,70,99,-65.74,9,-1.0,4.0,-1000.0
3.561,0,0,68,1,1,0,53,56,80,70,99,-65.74,9,-1.0,4.0,-1000.0
3.623,0,0,71,1,1,0,53,56,80,70,99,-65.82,9,2.0,6.0,-1004.0
3.684,0,0,71,1,1,0,53,56,80,70,99,-65.82,9,2.0,6.0,-1004.0
3.747,0,0,75,1,1,0,53,56,80,70,99,-65.76,9,5.0,3.0,-1001.0
3.809,0,0,78,1,1,0,53,56,80,70,99,-65.73,9,-1.0,-1.0,-995.0
3.872,0,0,78,1,1,0,53,56,80,70,99,-65.73,9,-1.0,-1.0,-995.0
3.935,0,0,81,1,2,0,53,56,80,70,99,-65.76,9,3.0,0.0,-1002.0
4.000,0,0,81,1,2,0,53,56,80,70,99,-65.76,9,3.0,0.0,-1002.0
4.062,0,0,84,0,2,0,53,56,79,70,99,-65.73,10,4.0,5.0,-1005.0
4.123,0,1,87,0,2,0,53,56,80,70,99,-65.8,10,1.0,3.0,-990.0
4.186,0,1,87,0,2,0,53,56,80,70,99,-65.8,10,1.0,3.0,-990.0
4.248,0,1,90,0,2,0,53,56,79,70,99,-65.8,10,6.0,13.0,-1007.0
4.311,0,1,90,0,2,0,53,56,79,70,99,-65.8,10,6.0,13.0,-1007.0
4.373,0,0,93,0,2,0,53,56,79,70,99,-65.76,10,-3.0,10.0,-1019.0
4.436,0,1,96,0,2,0,53,56,79,70,99,-65.76,10,-9.0,2.0,-1005.0
4.498,0,1,96,0,2,0,53,56,79,70,99,-65.76,10,-9.0,2.0,-1005.0
4.559,0,1,100,0,2,0,53,56,78,70,99,-65.75,10,5.0,7.0,-1005.0
4.621,0,0,103,0,2,0,53,56,78,70,99,-65.76,10,-5.0,9.0,-992.0
4.683,0,0,103,0,2,0,53,56,78,70,99,-65.76,10,-5.0,9.0,-992.0
4.746,0,0,106,0,2,0,53,56,78,70,99,-65.71,10,-1.0,16.0,-1002.0
4.809,0,0,106,0,2,0,53,56,78,70,99,-65.71,10,-1.0,16.0,-1002.0
4.870,0,0,109,0,1,0,54,56,78,70,99,-65.74,10,8.0,16.0,-1005.0
4.933,0,0,112,0,1,0,54,56,78,70,99,-65.65,10,-2.0,14.0,-989.0
4.996,0,0,112,0,1,0,54,56,78,70,99,-65.65,10,-2.0,14.0,-989.0
