time_elapsed,pitch,roll,yaw,vgx,vgy,vgz,templ,temph,tof,h,bat,baro,time,agx,agy,agz
0.000,0,0,-93,0,0,0,72,75,79,40,87,-65.95,52,-2.0,-6.0,-994.0
0.062,0,0,-93,0,0,0,72,75,79,40,87,-65.95,52,-2.0,-6.0,-994.0
0.124,0,0,-93,0,0,0,72,75,79,40,87,-65.95,52,9.0,-19.0,-997.0
0.186,0,0,-92,0,0,0,72,75,79,40,87,-65.92,52,12.0,-10.0,-1000.0
0.247,0,0,-92,0,0,0,72,75,79,40,87,-65.92,52,12.0,-10.0,-1000.0
0.309,0,1,-90,0,0,0,72,75,79,40,87,-65.87,52,15.0,-4.0,-999.0
0.370,0,1,-90,0,0,0,72,75,79,40,87,-65.87,52,15.0,-4.0,-999.0
0.433,0,1,-88,0,0,0,72,75,79,40,87,-66.01,52,7.0,-12.0,-993.0
0.497,0,0,-85,0,0,0,72,75,79,40,87,-66.0,52,7.0,-7.0,-979.0
0.560,0,0,-85,0,0,0,72,75,79,40,87,-66.0,52,7.0,-7.0,-979.0
0.622,0,0,-83,0,0,0,72,75,79,40,87,-65.97,52,29.0,-17.0,-1000.0
0.685,0,0,-80,0,0,0,72,75,79,40,87,-66.02,53,6.0,-17.0,-989.0
0.747,0,0,-80,0,0,0,72,75,79,40,87,-66.02,53,6.0,-17.0,-989.0
0.810,0,0,-78,0,-1,0,72,75,78,40,87,-66.01,53,-1.0,-17.0,-1004.0
0.873,0,0,-78,0,-1,0,72,75,78,40,87,-66.01,53,-1.0,-17.0,-1004.0
0.937,0,0,-75,0,-1,0,72,75,79,40,87,-65.85,53,5.0,-15.0,-1002.0
0.998,0,0,-73,0,-1,0,72,75,78,40,87,-65.96,53,2.0,-13.0,-993.0
1.060,0,0,-73,0,-1,0,72,75,78,40,87,-65.96,53,2.0,-13.0,-993.0
1.122,0,0,-70,0,-1,0,72,75,78,40,87,-65.98,53,0.0,-12.0,-1001.0
1.185,0,0,-67,0,-1,0,72,75,78,40,87,-65.99,53,-13.0,-9.0,-1011.0
1.246,0,0,-65,0,-1,0,73,75,79,40,87,-65.98,53,12.0,-13.0,-1005.0
1.309,0,0,-65,0,-1,0,73,75,79,40,87,-65.98,53,12.0,-13.0,-1005.0
1.371,0,0,-62,0,-1,0,73,75,80,40,87,-65.94,53,-1.0,-6.0,-1017.0
1.433,0,0,-62,0,-1,0,73,75,80,40,87,-65.94,53,-1.0,-6.0,-1017.0
1.496,0,0,-59,0,-1,0,73,75,80,40,87,-65.93,53,-11.0,-9.0,-997.0
1.558,0,0,-56,0,-1,0,73,75,81,40,87,-65.93,53,-2.0,3.0,-995.0
1.620,0,0,-56,0,-1,0,73,75,81,40,87,-65.93,53,-2.0,3.0,-995.0
1.682,0,0,-53,0,-1,0,73,75,81,40,87,-65.91,54,0.0,7.0,-1010.0
1.743,0,0,-53,0,-1,0,73,75,81,40,87,-65.91,54,0.0,7.0,-1010.0
1.806,0,0,-50,0,-1,0,73,75,81,40,87,-65.9,54,5.0,-5.0,-990.0
1.869,0,0,-47,0,-1,0,73,75,81,40,87,-65.92,54,4.0,0.0,-994.0
1.931,0,0,-47,0,-1,0,73,75,81,40,87,-65.92,54,4.0,0.0,-994.0
1.992,0,0,-43,0,-1,0,73,75,82,50,87,-65.92,54,13.0,-13.0,-991.0
2.054,0,0,-43,0,-1,0,73,75,82,50,87,-65.92,54,13.0,-13.0,-991.0
2.116,0,0,-40,0,-1,0,73,75,83,50,87,-65.88,54,2.0,-9.0,-971.0
2.180,0,0,-37,0,-1,0,73,75,82,50,87,-65.87,54,0.0,-7.0,-982.0
2.242,0,0,-37,0,-1,0,73,75,82,50,87,-65.87,54,0.0,-7.0,-982.0
2.305,0,1,-33,1,-1,0,72,75,82,50,87,-65.91,54,24.0,10.0,-1001.0
2.368,0,1,-30,1,-1,0,72,75,82,50,87,-65.9,54,5.0,-2.0,-977.0
2.430,0,1,-30,1,-1,0,72,75,82,50,87,-65.9,54,5.0,-2.0,-977.0
2.492,2,-2,-26,0,-1,0,72,75,83,50,87,-65.93,54,-48.0,13.0,-1206.0
2.553,2,-2,-26,0,-1,0,72,75,83,50,87,-65.93,54,-48.0,13.0,-1206.0
2.616,4,-4,-23,-3,-2,0,72,75,82,50,87,-65.93,54,38.0,14.0,-1002.0
2.678,-3,3,-20,-3,-3,0,72,75,84,50,87,-65.91,55,66.0,45.0,-941.0
2.740,-3,3,-20,-3,-3,0,72,75,84,50,87,-65.91,55,66.0,45.0,-941.0
2.802,-9,8,-17,-1,-2,0,72,75,84,50,87,-65.98,55,34.0,13.0,-1017.0
2.864,-9,8,-17,-1,-2,0,72,75,84,50,87,-65.98,55,34.0,13.0,-1017.0
2.926,-5,4,-14,0,-1,0,72,75,82,50,87,-65.93,55,1.0,-3.0,-1015.0
2.987,-2,1,-10,1,-1,0,72,75,82,50,87,-65.92,55,3.0,1.0,-1028.0
3.049,-2,1,-10,1,-1,0,72,75,82,50,87,-65.92,55,3.0,1.0,-1028.0
3.111,-1,1,-7,1,0,0,72,75,82,50,87,-65.89,55,-13.0,-12.0,-990.0
3.173,-1,1,-7,1,0,0,72,75,82,50,87,-65.89,55,-13.0,-12.0,-990.0
3.234,0,0,-4,1,0,0,72,75,83,50,87,-65.95,55,0.0,2.0,-1015.0
3.296,0,0,-1,2,0,0,73,75,83,50,87,-65.94,55,-2.0,0.0,-999.0
3.359,0,0,-1,2,0,0,73,75,83,50,87,-65.94,55,-2.0,0.0,-999.0
3.422,0,0,1,2,0,0,73,75,82,50,87,-65.97,55,0.0,-4.0,-965.0
3.486,0,0,5,1,0,0,73,75,83,50,87,-65.96,55,-9.0,-2.0,-962.0
3.548,0,0,5,1,0,0,73,75,83,50,87,-65.96,55,-9.0,-2.0,-962.0
3.609,0,0,8,1,0,0,73,75,82,50,87,-65.94,55,-11.0,4.0,-953.0
3.672,0,0,8,1,0,0,73,75,82,50,87,-65.94,55,-11.0,4.0,-953.0
3.733,0,0,11,1,0,0,73,75,81,50,87,-65.95,56,9.0,-1.0,-953.0
3.795,0,0,15,1,0,0,73,75,80,50,87,-65.95,56,5.0,4.0,-963.0
3.857,0,0,15,1,0,0,73,75,80,50,87,-65.95,56,5.0,4.0,-963.0
3.919,0,0,18,2,0,0,73,75,78,50,87,-65.98,56,4.0,0.0,-960.0
3.981,0,0,18,2,0,0,73,75,78,50,87,-65.98,56,4.0,0.0,-960.0
4.043,0,0,21,2,0,0,73,75,76,50,87,-65.96,56,1.0,12.0,-987.0
4.105,0,0,25,2,0,0,73,75,73,50,87,-66.04,56,12.0,4.0,-983.0
4.168,0,0,25,2,0,0,73,75,73,50,87,-66.04,56,12.0,4.0,-983.0
4.230,0,0,28,2,0,0,73,75,70,50,87,-66.11,56,-1.0,5.0,-999.0
4.292,0,0,28,2,0,0,73,75,70,50,87,-66.11,56,-1.0,5.0,-999.0
4.355,0,0,31,2,0,0,72,75,68,50,87,-66.08,56,2.0,15.0,-999.0
4.417,0,0,34,2,0,0,72,75,65,50,87,-65.95,56,5.0,3.0,-1011.0
4.478,0,0,34,2,0,0,72,75,65,50,87,-65.95,56,5.0,3.0,-1011.0
4.541,7,8,36,-2,1,1,72,75,66,50,87,-66.03,56,1.0,19.0,-1025.0
4.605,9,10,39,-5,2,1,72,75,60,40,87,-66.15,56,-3.0,39.0,-739.0
4.667,-25,-47,60,-5,2,4,72,75,44,40,87,-66.34,57,-25.0,92.0,-761.0
4.728,-25,-47,60,-5,2,4,72,75,44,40,87,-66.34,57,-25.0,92.0,-761.0
4.790,1,-146,110,1,1,12,72,75,331,30,87,-66.45,57,-24.0,21.0,-516.0
4.853,1,-146,110,1,1,12,72,75,331,30,87,-66.45,57,-24.0,21.0,-516.0
4.914,51,82,47,2,3,25,72,75,10,20,87,-66.97,57,13.0,-85.0,-575.0
4.976,11,10,9,1,-4,4,72,75,10,0,87,-66.87,57,-45.0,70.0,-125.0
