time_elapsed,pitch,roll,yaw,vgx,vgy,vgz,templ,temph,tof,h,bat,baro,time,agx,agy,agz
0.000,0,0,-95,0,0,0,77,80,81,70,86,-66.08,60,8.0,-8.0,-978.0
0.063,0,0,-95,0,0,0,77,80,80,70,86,-66.13,60,17.0,5.0,-1001.0
0.126,0,0,-95,0,0,0,77,80,80,70,86,-66.13,60,17.0,5.0,-1001.0
0.189,0,0,-94,0,0,0,77,80,80,70,86,-66.01,61,12.0,-26.0,-982.0
0.251,0,0,-92,0,0,0,77,80,80,70,86,-66.12,61,29.0,-8.0,-1000.0
0.314,0,0,-92,0,0,0,77,80,80,70,86,-66.12,61,29.0,-8.0,-1000.0
0.375,0,0,-89,0,0,0,77,80,80,70,86,-66.08,61,-8.0,-4.0,-998.0
0.437,0,0,-89,0,0,0,77,80,80,70,86,-66.08,61,-8.0,-4.0,-998.0
0.499,0,0,-86,0,0,0,77,80,79,70,86,-66.1,61,0.0,-4.0,-1011.0
0.562,-1,0,-84,0,0,0,77,80,79,70,86,-66.03,61,19.0,-1.0,-1017.0
0.624,-1,0,-84,0,0,0,77,80,79,70,86,-66.03,61,19.0,-1.0,-1017.0
0.687,-1,0,-81,0,0,0,77,80,80,70,86,-66.05,61,-1.0,-14.0,-994.0
0.750,-1,0,-81,0,0,0,77,80,80,70,86,-66.05,61,-1.0,-14.0,-994.0
0.811,-1,0,-78,0,0,0,77,80,80,70,86,-66.1,61,-1.0,-1.0,-1007.0
0.873,-1,0,-76,0,0,0,77,80,81,70,86,-65.99,61,3.0,-13.0,-991.0
0.935,-1,0,-76,0,0,0,77,80,81,70,86,-65.99,61,3.0,-13.0,-991.0
0.998,-1,0,-73,0,-1,0,77,80,81,70,86,-66.03,61,-4.0,-9.0,-1000.0
1.060,-1,0,-71,0,-1,0,77,80,82,70,86,-66.1,61,11.0,-10.0,-1004.0
1.122,-1,0,-71,0,-1,0,77,80,82,70,86,-66.1,61,11.0,-10.0,-1004.0
1.184,0,0,-68,0,-1,0,77,80,83,70,86,-66.05,62,-4.0,-6.0,-995.0
1.246,0,0,-68,0,-1,0,77,80,83,70,86,-66.05,62,-4.0,-6.0,-995.0
1.308,0,0,-65,0,-1,0,77,80,83,70,86,-66.0,62,-19.0,-5.0,-978.0
1.369,-1,0,-62,0,-1,0,77,80,83,70,86,-66.02,62,-13.0,-9.0,-972.0
1.432,-1,0,-62,0,-1,0,77,80,83,70,86,-66.02,62,-13.0,-9.0,-972.0
1.494,-1,0,-60,0,-1,0,77,80,83,70,86,-66.12,62,-8.0,-3.0,-992.0
1.556,-1,0,-60,0,-1,0,77,80,83,70,86,-66.12,62,-8.0,-3.0,-992.0
1.618,-1,0,-57,0,-1,0,77,80,83,70,86,-66.04,62,-23.0,11.0,-985.0
1.682,-1,0,-54,0,-1,0,77,80,82,70,86,-66.0,62,-3.0,-1.0,-988.0
1.745,-1,0,-54,0,-1,0,77,80,82,70,86,-66.0,62,-3.0,-1.0,-988.0
1.807,-1,0,-51,0,-1,0,77,80,83,70,86,-66.04,62,-22.0,-14.0,-991.0
1.869,-1,0,-51,0,-1,0,77,80,83,70,86,-66.04,62,-22.0,-14.0,-991.0
1.930,-1,0,-48,0,-1,0,77,80,83,70,86,-66.08,62,-29.0,8.0,-1005.0
1.993,-1,0,-44,0,-1,0,77,80,84,70,86,-66.08,62,-20.0,18.0,-1030.0
2.055,-1,0,-44,0,-1,0,77,80,84,70,86,-66.08,62,-20.0,18.0,-1030.0
2.117,-1,0,-41,0,-1,0,77,80,84,70,86,-66.14,62,-2.0,-4.0,-995.0
2.179,0,0,-38,0,-1,0,77,80,84,70,86,-66.11,63,-4.0,6.0,-1003.0
2.240,0,0,-38,0,-1,0,77,80,84,70,86,-66.11,63,-4.0,6.0,-1003.0
2.302,0,0,-35,1,-1,0,77,80,84,70,86,-66.13,63,-6.0,6.0,-996.0
2.364,0,0,-35,1,-1,0,77,80,84,70,86,-66.13,63,-6.0,6.0,-996.0
2.426,0,0,-31,1,-1,0,77,80,85,70,86,-66.04,63,-15.0,16.0,-1026.0
2.487,0,0,-28,1,-1,0,77,80,84,70,86,-66.09,63,14.0,2.0,-971.0
2.550,0,0,-25,1,-1,0,77,80,84,70,86,-66.07,63,-11.0,10.0,-996.0
2.612,0,0,-25,1,-1,0,77,80,84,70,86,-66.07,63,-11.0,10.0,-996.0
2.674,0,0,-22,1,-1,0,77,80,85,70,86,-66.06,63,-9.0,10.0,-1004.0
2.736,0,0,-22,1,-1,0,77,80,85,70,86,-66.06,63,-9.0,10.0,-1004.0
2.798,0,0,-19,1,-1,0,77,80,84,70,86,-66.07,63,-9.0,1.0,-977.0
2.862,0,0,-15,1,-1,0,76,79,84,70,86,-66.06,63,-13.0,6.0,-988.0
2.923,0,0,-15,1,-1,0,76,79,84,70,86,-66.06,63,-13.0,6.0,-988.0
2.985,0,0,-12,1,-1,0,76,79,84,70,86,-66.01,63,19.0,13.0,-999.0
3.047,0,0,-9,1,-1,0,76,79,83,70,86,-66.13,63,22.0,12.0,-981.0
3.108,0,0,-9,1,-1,0,76,79,83,70,86,-66.13,63,22.0,12.0,-981.0
3.169,0,0,-6,1,0,0,76,79,84,70,86,-66.1,64,8.0,-9.0,-977.0
3.231,0,0,-6,1,0,0,76,79,84,70,86,-66.1,64,8.0,-9.0,-977.0
3.293,0,0,-3,1,0,0,76,79,82,70,86,-65.99,64,5.0,5.0,-987.0
3.356,0,0,0,1,0,0,76,79,83,70,86,-66.02,64,2.0,9.0,-991.0
3.418,0,0,0,1,0,0,76,79,83,70,86,-66.02,64,2.0,9.0,-991.0
3.480,0,0,3,1,0,0,76,79,83,70,86,-66.04,64,-14.0,18.0,-997.0
3.542,0,0,3,1,0,0,76,79,83,70,86,-66.04,64,-14.0,18.0,-997.0
3.603,0,0,6,1,0,0,76,79,82,70,86,-66.06,64,-19.0,1.0,-988.0
3.665,0,0,9,1,0,0,76,79,83,70,86,-66.05,64,-22.0,18.0,-1011.0
3.726,0,0,9,1,0,0,76,79,83,70,86,-66.05,64,-22.0,18.0,-1011.0
3.788,0,0,12,1,0,0,76,79,83,70,86,-66.07,64,-7.0,6.0,-996.0
3.850,0,0,12,1,0,0,76,79,83,70,86,-66.07,64,-7.0,6.0,-996.0
3.913,-1,0,15,1,0,0,76,79,83,70,86,-66.09,64,-4.0,2.0,-988.0
3.976,-1,0,18,1,0,0,76,79,83,70,86,-66.05,64,9.0,0.0,-995.0
4.039,-1,0,18,1,0,0,76,79,83,70,86,-66.05,64,9.0,0.0,-995.0
4.101,0,0,21,1,0,0,76,79,82,70,86,-66.1,64,-12.0,6.0,-987.0
4.164,0,0,21,1,0,0,76,79,82,70,86,-66.1,64,-12.0,6.0,-987.0
4.227,0,0,24,1,0,0,76,79,82,70,86,-66.05,65,0.0,13.0,-1016.0
4.288,0,0,27,2,0,0,76,79,82,70,86,-66.07,65,-15.0,4.0,-991.0
4.350,0,0,27,2,0,0,76,79,82,70,86,-66.07,65,-15.0,4.0,-991.0
4.412,0,0,30,2,0,0,76,79,82,70,86,-66.05,65,-1.0,5.0,-994.0
4.473,0,0,30,2,0,0,76,79,82,70,86,-66.05,65,-1.0,5.0,-994.0
4.536,0,0,33,2,0,0,76,79,82,70,86,-66.09,65,8.0,0.0,-1002.0
4.597,0,0,35,2,0,0,76,79,82,70,86,-66.03,65,37.0,1.0,-1016.0
4.658,0,0,35,2,0,0,76,79,82,70,86,-66.03,65,37.0,1.0,-1016.0
4.721,0,0,38,2,0,0,76,79,82,70,86,-66.09,65,14.0,0.0,-982.0
4.782,0,0,41,1,0,0,76,79,82,70,86,-66.04,65,-1.0,-9.0,-976.0
4.845,0,0,41,1,0,0,76,79,82,70,86,-66.04,65,-1.0,-9.0,-976.0
4.906,0,0,44,1,0,0,77,79,83,70,86,-66.04,65,15.0,8.0,-1002.0
4.968,0,0,44,1,0,0,77,79,83,70,86,-66.04,65,15.0,8.0,-1002.0
