time_elapsed,pitch,roll,yaw,vgx,vgy,vgz,templ,temph,tof,h,bat,baro,time,agx,agy,agz
0.000,0,0,-11,0,0,0,90,93,78,60,83,-60.77,31,0.0,17.0,-1000.0
0.062,0,0,-11,0,0,0,90,92,78,60,83,-60.78,31,-12.0,22.0,-1004.0
0.124,0,0,-11,0,0,0,90,92,78,60,83,-60.73,31,34.0,3.0,-1002.0
0.186,0,0,-11,0,0,0,90,92,78,60,83,-60.73,31,34.0,3.0,-1002.0
0.248,0,0,-11,0,0,0,90,92,78,60,83,-60.83,31,-10.0,9.0,-1001.0
0.311,0,0,-11,0,0,0,90,92,78,60,83,-60.83,31,-10.0,9.0,-1001.0
0.373,0,0,-11,0,0,0,90,92,78,60,83,-60.74,31,3.0,17.0,-997.0
0.435,0,0,-11,0,0,0,90,92,79,60,83,-60.8,32,3.0,5.0,-998.0
0.498,0,0,-11,0,0,0,90,92,79,60,83,-60.8,32,3.0,5.0,-998.0
0.559,0,-1,-11,0,0,0,90,92,79,60,83,-60.78,32,-7.0,15.0,-1006.0
0.622,0,-1,-11,0,0,0,90,92,79,70,83,-60.85,32,-6.0,17.0,-1000.0
0.685,0,-1,-11,0,0,0,90,92,79,70,83,-60.85,32,-6.0,17.0,-1000.0
0.749,0,-1,-11,0,0,0,90,92,79,70,83,-60.79,32,-1.0,13.0,-998.0
0.811,0,-1,-11,0,0,0,90,92,79,70,83,-60.79,32,-1.0,13.0,-998.0
0.873,0,-1,-11,0,0,0,90,92,79,70,83,-60.86,32,1.0,10.0,-1010.0
0.936,0,-1,-11,0,0,0,90,92,79,70,83,-60.85,32,-6.0,13.0,-1002.0
0.997,0,-1,-11,0,0,0,90,92,79,70,83,-60.85,32,-6.0,13.0,-1002.0
1.060,0,0,-11,0,0,0,89,92,80,70,83,-60.81,32,-3.0,14.0,-1005.0
1.121,0,0,-11,0,0,0,89,92,80,70,83,-60.81,32,-3.0,14.0,-1005.0
1.182,0,0,-11,0,0,0,89,92,80,70,83,-60.81,32,-3.0,14.0,-1005.0
1.245,0,-1,-11,0,0,0,89,92,80,70,83,-60.87,32,-4.0,17.0,-982.0
1.309,0,-1,-11,0,0,0,89,92,80,70,83,-60.87,32,-4.0,17.0,-982.0
1.371,0,-1,-11,0,0,0,89,92,80,70,83,-60.95,32,-6.0,17.0,-990.0
1.434,0,-1,-11,0,0,0,89,92,80,70,83,-60.95,32,-6.0,17.0,-990.0
1.496,0,-1,-11,0,0,0,89,92,80,70,83,-60.87,33,1.0,22.0,-1003.0
1.558,0,-1,-11,0,0,0,89,92,80,70,83,-60.87,33,1.0,22.0,-1003.0
1.620,0,-1,-11,0,0,0,89,92,80,70,83,-60.88,33,19.0,20.0,-998.0
1.682,0,-1,-11,0,0,0,89,92,80,70,83,-60.88,33,19.0,20.0,-998.0
1.746,0,-1,-11,0,0,0,89,92,80,70,83,-60.88,33,19.0,20.0,-998.0
1.810,0,0,-11,0,0,0,89,92,80,70,83,-60.92,33,7.0,10.0,-1005.0
1.871,0,0,-11,0,0,0,89,92,80,70,83,-60.92,33,7.0,10.0,-1005.0
1.935,0,0,-11,0,0,0,89,92,80,70,83,-60.92,33,7.0,10.0,-1005.0
1.999,0,0,-11,0,0,0,88,92,80,70,83,-60.91,33,-3.0,16.0,-1005.0
2.060,0,0,-11,0,0,0,88,92,80,70,83,-60.91,33,-3.0,16.0,-1005.0
2.123,0,0,-11,0,0,0,88,92,80,70,83,-60.91,33,-3.0,16.0,-1005.0
2.185,0,0,-11,0,0,0,88,92,79,70,83,-60.85,33,10.0,20.0,-999.0
2.246,0,0,-11,0,0,0,88,92,80,70,83,-60.91,33,-7.0,8.0,-996.0
2.309,0,0,-11,0,0,0,88,92,80,70,83,-60.91,33,-7.0,8.0,-996.0
2.370,0,0,-11,0,0,0,88,92,79,70,83,-60.96,33,-2.0,18.0,-994.0
2.432,0,0,-11,0,0,0,88,92,80,70,83,-60.96,34,-6.0,18.0,-1003.0
2.494,0,0,-11,0,0,0,88,92,80,70,83,-60.96,34,-6.0,18.0,-1003.0
2.556,0,0,-11,0,0,0,88,92,80,70,83,-60.96,34,-6.0,18.0,-1003.0
2.619,0,0,-11,0,0,0,88,92,80,70,83,-60.89,34,7.0,-1.0,-1011.0
2.682,0,0,-11,0,0,0,88,92,80,70,83,-60.89,34,7.0,-1.0,-1011.0
2.745,0,0,-11,0,0,0,88,92,80,70,83,-60.89,34,7.0,-1.0,-1011.0
2.808,0,0,-11,0,0,0,88,92,80,70,83,-60.91,34,4.0,10.0,-1000.0
2.869,0,0,-11,0,0,0,88,92,80,70,83,-60.91,34,4.0,10.0,-1000.0
2.931,0,0,-11,0,0,0,88,92,80,70,83,-60.91,34,4.0,10.0,-1000.0
2.993,0,0,-11,0,0,0,88,92,80,70,83,-60.92,34,-3.0,0.0,-995.0
3.054,0,0,-11,0,0,0,89,91,80,70,83,-60.91,34,1.0,21.0,-1007.0
3.118,0,0,-11,0,0,0,89,91,80,70,83,-60.91,34,1.0,21.0,-1007.0
3.180,0,0,-11,0,0,0,89,91,80,70,83,-60.91,34,1.0,21.0,-1007.0
3.243,0,0,-11,0,0,0,89,91,81,70,83,-60.96,34,-7.0,32.0,-1002.0
3.306,0,0,-11,0,0,0,89,91,81,70,83,-60.96,34,-7.0,32.0,-1002.0
3.368,0,0,-11,0,0,0,89,91,81,70,83,-60.96,34,-7.0,32.0,-1002.0
3.432,0,-1,-11,0,0,0,89,91,80,70,83,-60.87,35,0.0,36.0,-973.0
3.495,0,-1,-11,0,0,0,89,91,80,70,83,-60.87,35,0.0,36.0,-973.0
3.557,0,-1,-11,0,0,0,89,91,80,70,83,-60.87,35,0.0,36.0,-973.0
3.619,0,-1,-11,0,0,0,89,91,80,70,83,-60.91,35,16.0,37.0,-999.0
3.682,0,-2,-11,0,0,0,89,91,80,70,83,-60.98,35,1.0,35.0,-998.0
3.745,0,0,-11,0,0,0,89,91,80,70,83,-60.56,35,-53.0,118.0,-993.0
3.808,0,0,-11,0,0,0,89,91,80,70,83,-60.56,35,-53.0,118.0,-993.0
3.870,0,0,-11,0,0,0,89,91,80,70,83,-60.56,35,-53.0,118.0,-993.0
3.934,-2,-2,-11,0,2,-1,89,91,82,70,83,-60.77,35,44.0,49.0,-962.0
3.998,-2,-2,-11,0,2,-1,89,91,82,70,83,-60.77,35,44.0,49.0,-962.0
4.060,-2,-2,-11,0,2,-1,89,91,82,70,83,-60.77,35,44.0,49.0,-962.0
4.123,-7,-10,-10,0,2,-1,88,91,85,70,83,-60.8,35,31.0,68.0,-931.0
4.184,0,-7,-11,1,1,0,88,91,84,70,83,-60.86,35,8.0,55.0,-918.0
4.246,0,-7,-11,1,1,0,88,91,84,70,83,-60.86,35,8.0,55.0,-918.0
4.310,0,-7,-11,1,1,0,88,91,84,70,83,-60.86,35,8.0,55.0,-918.0
4.373,2,-5,-11,0,0,0,88,91,82,70,83,-60.9,35,-54.0,53.0,-1019.0
4.436,2,-5,-11,0,0,0,88,91,82,70,83,-60.9,35,-54.0,53.0,-1019.0
4.499,2,-5,-11,0,0,0,88,91,82,70,83,-60.9,35,-54.0,53.0,-1019.0
4.562,-6,-6,-11,0,-1,1,88,91,82,70,83,-60.7,36,85.0,-66.0,-927.0
4.623,-6,-6,-11,0,-1,1,88,91,82,70,83,-60.7,36,85.0,-66.0,-927.0
4.686,-6,-6,-11,0,-1,1,88,91,82,70,83,-60.7,36,85.0,-66.0,-927.0
4.749,2,7,-11,0,-2,1,88,91,78,60,83,-60.63,36,-25.0,60.0,-990.0
4.814,2,7,-11,0,-2,1,88,91,78,60,83,-60.63,36,-25.0,60.0,-990.0
4.876,2,7,-11,0,-2,1,88,91,78,60,83,-60.63,36,-25.0,60.0,-990.0
4.939,2,4,-11,0,0,1,88,91,77,60,83,-60.81,36,-21.0,19.0,-1014.0
5.002,-1,-1,-11,0,0,0,88,91,76,60,83,-60.98,36,2.0,8.0,-1093.0
5.063,-2,-3,-11,0,0,0,88,90,77,60,83,-61.08,36,-12.0,15.0,-1065.0
5.126,-2,-3,-11,0,0,0,88,90,77,60,83,-61.08,36,-12.0,15.0,-1065.0
5.189,-2,-3,-11,0,0,0,88,90,77,60,83,-61.08,36,-12.0,15.0,-1065.0
5.251,0,-2,-12,0,0,-1,88,90,77,60,83,-61.0,36,2.0,16.0,-1019.0
5.313,0,-1,-11,0,0,-1,88,90,78,70,83,-60.97,36,-21.0,10.0,-992.0
5.376,0,0,-11,0,0,0,88,90,79,70,83,-60.99,36,-36.0,9.0,-980.0
5.439,0,0,-11,0,0,0,88,90,79,70,83,-60.99,36,-36.0,9.0,-980.0
5.503,-1,0,-11,0,0,0,88,90,80,70,83,-60.99,37,-28.0,15.0,-985.0
5.565,-1,0,-11,0,0,0,88,90,80,70,83,-60.94,37,-31.0,7.0,-973.0
5.628,-2,-1,-11,0,0,0,88,90,80,70,83,-61.0,37,-37.0,13.0,-979.0
5.689,-2,-1,-11,0,0,0,88,90,80,70,83,-61.0,37,-37.0,13.0,-979.0
5.751,-2,-1,-11,0,0,0,88,90,80,70,83,-60.92,37,-32.0,5.0,-989.0
5.814,-2,-1,-11,0,0,0,88,90,80,70,83,-60.92,37,-32.0,5.0,-989.0
5.877,-1,0,-11,0,0,0,88,90,80,70,83,-60.92,37,-27.0,14.0,-1000.0
5.938,-1,0,-11,0,0,0,88,90,80,70,83,-60.98,37,-35.0,2.0,-967.0
6.001,-1,0,-11,0,0,0,88,90,80,70,83,-60.98,37,-35.0,2.0,-967.0
6.063,-1,0,-11,0,0,0,88,90,80,70,83,-60.99,37,-32.0,9.0,-992.0
6.125,-1,0,-11,0,0,0,88,90,80,70,83,-60.99,37,-32.0,9.0,-992.0
6.188,-1,0,-11,0,0,0,88,90,80,70,83,-60.87,37,-35.0,5.0,-984.0
6.249,-1,0,-11,0,0,0,88,90,79,70,83,-60.86,37,-25.0,21.0,-990.0
6.311,-1,0,-11,0,0,0,88,90,79,70,83,-60.86,37,-25.0,21.0,-990.0
6.374,-1,0,-11,0,0,0,88,90,79,70,83,-60.92,37,-28.0,16.0,-988.0
6.437,-1,-1,-11,0,0,0,88,90,79,70,83,-60.84,38,-27.0,14.0,-993.0
6.497,-1,-1,-11,0,0,0,88,90,79,70,83,-60.84,38,-27.0,14.0,-993.0
6.560,-1,-1,-11,0,0,0,88,90,79,70,83,-60.84,38,-27.0,14.0,-993.0
6.623,0,-1,-11,0,0,0,88,90,78,70,83,-60.88,38,-4.0,42.0,-1002.0
6.686,0,-1,-11,0,0,0,88,90,78,70,83,-61.09,38,-17.0,45.0,-1022.0
6.750,0,-1,-11,0,0,0,88,90,78,70,83,-61.09,38,-17.0,45.0,-1022.0
6.813,0,0,-11,0,0,0,88,90,77,70,83,-60.87,38,-59.0,70.0,-1018.0
6.874,0,-2,-11,0,0,0,88,90,77,70,83,-60.95,38,-125.0,61.0,-1043.0
6.936,0,-2,-11,0,0,0,88,90,77,70,83,-60.95,38,-125.0,61.0,-1043.0
6.998,-3,-1,-10,-1,1,0,88,90,77,70,83,-60.4,38,-13.0,-6.0,-1121.0
7.060,-7,0,-3,0,1,-1,87,90,79,70,83,-60.42,38,14.0,61.0,-966.0
7.123,-7,0,-3,0,1,-1,87,90,79,70,83,-60.42,38,14.0,61.0,-966.0
7.185,-1,-5,4,0,1,0,87,90,78,70,83,-59.25,38,-28.0,129.0,-983.0
7.248,0,-11,11,0,1,0,87,90,81,70,83,-59.85,38,-25.0,-71.0,-1064.0
7.311,0,-11,11,0,1,0,87,90,81,70,83,-59.85,38,-25.0,-71.0,-1064.0
7.372,0,-11,11,0,1,0,87,90,81,70,83,-59.85,38,-25.0,-71.0,-1064.0
7.434,-8,-12,16,2,0,0,87,90,82,70,83,-60.53,38,176.0,30.0,-1079.0
7.497,-3,-4,14,6,-1,0,87,90,79,70,83,-60.92,39,113.0,88.0,-888.0
7.560,-3,-4,14,6,-1,0,87,90,79,70,83,-60.92,39,113.0,88.0,-888.0
7.620,8,0,3,6,0,0,87,90,77,70,83,-60.96,39,-35.0,98.0,-974.0
7.682,7,0,-9,5,0,1,87,90,76,60,83,-60.85,39,-31.0,51.0,-1011.0
7.743,7,0,-9,5,0,1,87,90,76,60,83,-60.85,39,-31.0,51.0,-1011.0
7.805,6,-4,-17,3,0,1,87,90,75,60,83,-60.92,39,-37.0,-14.0,-1068.0
7.867,3,-5,-18,1,0,0,87,90,74,60,83,-60.99,39,-8.0,2.0,-1037.0
7.930,3,-5,-18,1,0,0,87,90,74,60,83,-60.99,39,-8.0,2.0,-1037.0
7.994,2,-4,-14,0,0,0,87,90,74,60,83,-60.92,39,-51.0,12.0,-1032.0
8.057,2,-4,-14,0,0,0,87,90,74,60,83,-60.92,39,-51.0,12.0,-1032.0
8.119,0,-2,-13,0,0,0,87,89,73,60,83,-60.97,39,-20.0,16.0,-1055.0
8.182,0,-1,-12,0,0,0,87,89,74,60,83,-60.98,39,-22.0,7.0,-1047.0
8.244,0,-1,-12,0,0,0,87,89,74,60,83,-60.98,39,-22.0,7.0,-1047.0
8.305,0,-1,-12,0,0,0,87,89,74,60,83,-60.98,39,-22.0,7.0,-1047.0
8.368,-1,0,-12,0,0,0,87,89,75,60,83,-60.96,39,-20.0,2.0,-992.0
8.430,-1,0,-12,0,0,0,87,89,75,60,83,-60.96,39,-20.0,2.0,-992.0
8.493,-1,0,-12,0,0,0,87,89,75,60,83,-60.96,39,-20.0,2.0,-992.0
8.557,-1,-1,-12,0,0,0,87,89,76,60,83,-61.02,40,-26.0,17.0,-990.0
8.618,-1,-1,-12,0,0,0,87,89,76,70,83,-61.12,40,-38.0,-1.0,-997.0
8.680,-1,-1,-12,0,0,0,87,89,76,70,83,-61.12,40,-38.0,-1.0,-997.0
8.743,0,-1,-12,0,0,0,87,89,77,70,83,-61.05,40,-45.0,4.0,-995.0
8.805,0,-1,-12,0,0,0,87,89,77,70,83,-60.99,40,-40.0,7.0,-985.0
8.867,0,-1,-12,0,0,0,87,89,77,70,83,-60.99,40,-40.0,7.0,-985.0
8.929,0,-1,-11,0,0,0,87,89,78,70,83,-60.96,40,-27.0,-4.0,-987.0
8.992,-1,-1,-11,0,0,0,87,89,78,70,83,-60.89,40,-28.0,3.0,-991.0
9.056,-1,-1,-11,0,0,0,87,89,78,70,83,-60.89,40,-28.0,3.0,-991.0
9.119,-1,-1,-11,0,0,0,87,89,78,70,83,-60.89,40,-28.0,3.0,-991.0
9.182,-1,-1,-11,0,-1,0,88,89,79,70,83,-60.99,40,-35.0,2.0,-1001.0
9.243,0,0,-11,0,-1,0,88,89,79,70,83,-61.01,40,-22.0,2.0,-994.0
9.305,0,0,-11,0,-1,0,88,89,79,70,83,-61.01,40,-22.0,2.0,-994.0
9.368,-1,0,-11,0,-1,0,88,89,80,70,83,-61.02,40,-21.0,-12.0,-998.0
9.431,-1,0,-11,0,-1,0,88,89,79,70,83,-60.98,40,-21.0,-1.0,-993.0
9.494,0,0,-11,0,-1,0,88,89,80,70,83,-61.08,41,-29.0,-4.0,-991.0
9.556,0,0,-11,0,-1,0,88,89,80,70,83,-61.08,41,-29.0,-4.0,-991.0
9.619,0,0,-11,0,-1,0,88,89,80,70,83,-61.08,41,-29.0,-4.0,-991.0
9.682,0,0,-11,0,0,0,88,89,80,70,83,-60.96,41,-27.0,10.0,-992.0
9.744,0,0,-11,0,0,0,88,89,79,70,83,-60.98,41,-34.0,0.0,-984.0
9.807,0,0,-11,0,0,0,88,89,79,70,83,-60.98,41,-34.0,0.0,-984.0
9.870,0,0,-11,0,0,0,88,89,79,70,83,-61.05,41,-31.0,8.0,-989.0
9.932,0,0,-11,0,0,0,88,89,79,70,83,-61.05,41,-31.0,8.0,-989.0
9.995,0,0,-11,0,0,0,88,89,79,70,83,-61.11,41,-20.0,5.0,-1008.0
10.058,0,0,-11,0,0,0,86,89,79,70,83,-60.98,41,-26.0,11.0,-989.0
10.122,0,0,-11,0,0,0,86,89,79,70,83,-60.98,41,-26.0,11.0,-989.0
10.185,0,0,-11,0,0,0,86,89,79,70,83,-60.93,41,-10.0,10.0,-980.0
10.248,0,0,-11,0,0,0,86,89,79,70,83,-60.93,41,-10.0,10.0,-980.0
10.312,0,0,-11,0,0,0,86,89,79,70,83,-60.93,41,-10.0,10.0,-980.0
10.376,0,-1,-11,0,0,0,86,89,78,70,83,-60.94,41,-10.0,30.0,-984.0
10.439,0,-1,-11,0,0,0,86,89,78,70,83,-60.94,41,-10.0,30.0,-984.0
10.502,0,-1,-11,0,0,0,86,89,78,70,83,-60.92,42,-25.0,10.0,-1002.0
10.563,0,-1,-11,0,0,0,86,89,77,70,83,-60.97,42,-32.0,38.0,-1003.0
10.626,0,-1,-11,0,0,0,86,89,77,70,83,-60.97,42,-32.0,38.0,-1003.0
10.689,0,-1,-11,0,0,0,86,89,77,70,83,-60.9,42,0.0,24.0,-1003.0
10.751,0,-1,-11,0,0,0,86,89,77,70,83,-60.9,42,0.0,24.0,-1003.0
10.814,0,-2,-11,0,0,0,86,89,76,60,83,-61.05,42,-8.0,42.0,-983.0
10.877,0,-2,-11,0,0,0,86,89,76,60,83,-60.98,42,-13.0,72.0,-1012.0
10.939,0,-2,-11,0,0,0,86,89,76,60,83,-60.98,42,-13.0,72.0,-1012.0
11.003,0,-2,-11,0,0,0,86,89,76,60,83,-60.71,42,-44.0,88.0,-1016.0
11.065,0,-2,-11,0,0,0,86,89,76,60,83,-60.71,42,-44.0,88.0,-1016.0
11.128,1,-3,-11,0,1,0,86,90,76,60,83,-59.94,42,-15.0,97.0,-916.0
11.191,-2,-2,-10,0,1,0,86,90,78,60,83,-60.26,42,82.0,151.0,-824.0
11.252,-2,-2,-10,0,1,0,86,90,78,60,83,-60.26,42,82.0,151.0,-824.0
11.315,-5,-8,-5,1,2,0,86,90,78,70,83,-60.58,42,90.0,63.0,-835.0
11.376,-1,-9,-7,3,1,1,86,90,75,60,83,-60.65,42,-82.0,167.0,-942.0
11.439,-1,-9,-7,3,1,1,86,90,75,60,83,-60.65,42,-82.0,167.0,-942.0
11.502,5,2,-12,3,1,1,86,90,74,60,83,-61.09,43,-110.0,98.0,-1178.0
11.565,5,2,-12,3,1,1,86,90,74,60,83,-61.09,43,-110.0,98.0,-1178.0
11.627,3,-4,-14,1,2,0,86,90,74,60,83,-61.15,43,-23.0,12.0,-1097.0
11.688,0,-6,-12,0,2,0,86,90,75,60,83,-60.91,43,-3.0,36.0,-977.0
11.751,0,-6,-12,0,2,0,86,90,75,60,83,-60.91,43,-3.0,36.0,-977.0
11.813,0,-4,-12,0,1,0,86,90,75,60,83,-61.05,43,-36.0,20.0,-981.0
11.875,0,-4,-12,0,1,0,86,90,75,60,83,-61.05,43,-36.0,20.0,-981.0
11.938,0,-5,-12,0,1,0,86,90,76,60,83,-60.81,43,-50.0,31.0,-994.0
12.000,0,-4,-13,0,0,0,86,90,76,60,83,-60.88,43,-49.0,39.0,-980.0
12.062,0,-4,-13,0,0,0,86,90,76,60,83,-60.88,43,-49.0,39.0,-980.0
12.126,-1,-5,-12,0,0,0,86,89,77,60,83,-60.89,43,-43.0,32.0,-974.0
12.189,-1,-5,-12,0,0,0,86,89,77,60,83,-60.89,43,-43.0,32.0,-974.0
12.253,-2,-4,-12,-1,0,0,86,89,77,70,83,-60.9,43,-55.0,13.0,-946.0
12.314,-2,-2,-12,-1,0,0,86,89,77,70,83,-60.91,43,-55.0,16.0,-994.0
12.376,-2,-2,-12,-1,0,0,86,89,77,70,83,-60.91,43,-55.0,16.0,-994.0
12.438,-2,-2,-12,-1,0,0,86,89,77,60,83,-61.0,43,-61.0,14.0,-1018.0
12.500,-2,-2,-12,-1,0,0,86,89,77,60,83,-61.0,43,-61.0,14.0,-1018.0
12.563,-2,-1,-12,-1,0,0,86,89,77,60,83,-61.03,44,-57.0,1.0,-1017.0
12.625,-3,-1,-11,0,0,0,86,89,78,60,83,-61.04,44,-54.0,15.0,-1014.0
12.688,-3,-1,-11,0,0,0,86,89,78,60,83,-61.04,44,-54.0,15.0,-1014.0
12.752,-2,-1,-11,0,0,0,86,89,78,60,83,-61.05,44,-55.0,4.0,-998.0
12.814,-2,-2,-11,0,0,0,86,89,79,70,83,-60.94,44,-56.0,4.0,-997.0
12.876,-2,-2,-11,0,0,0,86,89,79,70,83,-60.94,44,-56.0,4.0,-997.0
12.938,-1,-2,-11,0,0,0,86,89,79,70,83,-60.89,44,-48.0,3.0,-1013.0
13.000,-1,-2,-11,0,0,0,86,89,79,70,83,-60.89,44,-48.0,3.0,-1013.0
13.062,-1,-1,-11,0,0,0,86,89,80,70,83,-61.06,44,-65.0,-2.0,-1014.0
13.125,-1,0,-11,0,-1,0,86,88,80,70,83,-60.92,44,-46.0,0.0,-982.0
13.190,-1,0,-11,0,-1,0,86,88,80,70,83,-60.92,44,-46.0,0.0,-982.0
13.249,-1,0,-11,0,-1,0,86,88,81,70,83,-60.91,44,-38.0,-2.0,-996.0
13.310,-1,0,-11,0,-1,0,86,88,81,70,83,-60.91,44,-38.0,-2.0,-996.0
13.374,-1,0,-11,0,-1,0,86,88,81,70,83,-60.82,44,-30.0,8.0,-977.0
13.437,-1,0,-11,0,-1,0,86,88,80,70,83,-60.93,45,-24.0,3.0,-991.0
13.500,-1,0,-11,0,-1,0,86,88,80,70,83,-60.93,45,-24.0,3.0,-991.0
13.563,0,0,-11,0,-1,0,86,88,81,70,83,-60.95,45,-36.0,2.0,-998.0
13.626,0,-1,-11,0,-1,0,86,88,81,70,83,-61.0,45,-47.0,12.0,-1005.0
13.687,0,-1,-11,0,-1,0,86,88,81,70,83,-61.0,45,-47.0,12.0,-1005.0
13.749,0,-1,-11,0,-1,0,86,88,80,70,83,-60.92,45,-7.0,19.0,-1007.0
13.810,0,-1,-11,0,-1,0,86,88,80,70,83,-60.92,45,-7.0,19.0,-1007.0
13.871,0,-1,-11,0,-1,0,86,88,81,70,83,-61.01,45,-37.0,10.0,-1012.0
13.934,0,0,-11,0,-1,0,86,88,81,70,83,-61.01,45,-25.0,3.0,-1015.0
13.997,0,0,-11,0,-1,0,86,88,81,70,83,-61.01,45,-25.0,3.0,-1015.0
14.059,0,-1,-11,0,-1,0,86,88,81,70,83,-60.96,45,-21.0,9.0,-997.0
14.122,0,-1,-11,0,-1,0,86,88,81,70,83,-60.96,45,-21.0,9.0,-997.0
14.184,0,0,-11,0,0,0,86,89,81,70,83,-60.99,45,-29.0,13.0,-1000.0
14.246,0,0,-11,0,0,0,86,89,81,70,83,-60.99,45,-29.0,13.0,-1000.0
14.308,0,0,-11,0,0,0,86,89,81,70,83,-60.99,45,-29.0,13.0,-1000.0
14.371,0,-1,-11,0,0,0,86,89,81,70,83,-60.99,45,-36.0,11.0,-1000.0
14.432,0,-1,-11,0,0,0,86,89,81,70,83,-61.06,46,-34.0,14.0,-984.0
14.495,0,-1,-11,0,0,0,86,89,81,70,83,-61.06,46,-34.0,14.0,-984.0
14.557,0,-1,-11,0,0,0,86,89,81,70,83,-60.99,46,-39.0,16.0,-987.0
14.620,0,-1,-11,0,0,0,86,89,81,70,83,-61.07,46,-26.0,13.0,-993.0
14.681,0,-1,-11,0,0,0,86,89,81,70,83,-61.07,46,-26.0,13.0,-993.0
14.743,0,-1,-11,0,0,0,86,89,81,70,83,-61.07,46,-26.0,13.0,-993.0
14.806,0,0,-11,0,0,0,86,89,80,70,83,-61.16,46,3.0,95.0,-976.0
14.867,0,0,-11,0,0,0,86,89,80,70,83,-61.16,46,3.0,95.0,-976.0
14.929,1,-1,-11,1,1,0,86,89,80,70,83,-61.29,46,2.0,119.0,-1041.0
14.991,1,-1,-11,1,1,0,86,89,80,70,83,-61.29,46,2.0,119.0,-1041.0
15.055,1,-1,-11,1,1,0,86,89,80,70,83,-61.29,46,2.0,119.0,-1041.0
15.116,2,-7,-12,0,3,-1,86,88,83,70,83,-60.68,46,-100.0,136.0,-930.0
15.180,2,-7,-12,0,3,-1,86,88,83,70,83,-60.68,46,-100.0,136.0,-930.0
15.243,0,-10,-11,0,3,1,86,88,83,70,83,-59.96,46,-29.0,26.0,-637.0
15.305,0,-10,-11,0,3,1,86,88,83,70,83,-59.96,46,-29.0,26.0,-637.0
15.366,-3,-12,-8,0,2,4,86,88,80,70,83,-60.44,46,105.0,-71.0,-880.0
15.427,4,-3,-3,0,0,3,86,88,74,60,83,-61.09,47,-82.0,80.0,-1102.0
15.490,4,-3,-3,0,0,3,86,88,74,60,83,-61.09,47,-82.0,80.0,-1102.0
15.552,4,-3,-3,0,0,3,86,88,74,60,83,-61.09,47,-82.0,80.0,-1102.0
15.614,0,-5,-5,0,0,0,86,88,71,60,83,-61.34,47,-31.0,25.0,-1135.0
15.678,0,-5,-5,0,0,0,86,88,71,60,83,-61.34,47,-31.0,25.0,-1135.0
15.740,0,-5,-5,0,0,0,86,88,71,60,83,-61.34,47,-31.0,25.0,-1135.0
15.803,-2,-2,-9,0,0,0,86,88,71,60,83,-61.0,47,54.0,19.0,-1024.0
15.865,-1,-3,-10,0,0,0,86,88,72,60,83,-61.08,47,-1.0,45.0,-1060.0
15.928,-1,-3,-10,0,0,0,86,88,72,60,83,-61.08,47,-1.0,45.0,-1060.0
15.991,-1,-3,-11,0,0,-1,86,88,72,60,83,-60.88,47,10.0,51.0,-999.0
16.055,0,-2,-11,0,0,-1,86,88,74,60,83,-61.04,47,26.0,64.0,-1016.0
16.119,0,-2,-11,0,0,-1,86,88,74,60,83,-61.04,47,26.0,64.0,-1016.0
16.182,0,-2,-11,0,0,-1,86,88,74,60,83,-61.04,47,26.0,64.0,-1016.0
16.246,0,-2,-11,0,0,-1,86,88,76,60,83,-60.97,47,25.0,53.0,-1011.0
16.309,0,-2,-11,0,0,-1,86,88,76,60,83,-60.97,47,25.0,53.0,-1011.0
16.372,0,-2,-11,0,0,-1,86,88,76,60,83,-60.97,47,25.0,53.0,-1011.0
16.434,1,-3,-12,2,-1,-1,86,88,78,60,83,-60.84,48,29.0,23.0,-982.0
16.496,1,-3,-12,2,-1,-1,86,88,78,60,83,-60.84,48,29.0,23.0,-982.0
16.558,1,-3,-12,2,-1,-1,86,88,78,60,83,-60.84,48,29.0,23.0,-982.0
16.622,4,-2,-12,2,-1,0,86,88,80,60,83,-60.89,48,12.0,34.0,-996.0
16.685,4,-2,-12,2,-1,0,86,88,81,70,83,-60.89,48,11.0,44.0,-965.0
16.747,4,-2,-12,2,-1,0,86,88,81,70,83,-60.89,48,11.0,44.0,-965.0
16.809,4,-2,-12,2,0,0,86,88,82,70,83,-60.88,48,9.0,25.0,-939.0
16.870,3,-2,-12,2,0,0,86,88,82,70,83,-60.86,48,10.0,27.0,-930.0
16.932,3,-2,-12,2,0,0,86,88,82,70,83,-60.86,48,10.0,27.0,-930.0
16.996,3,-2,-12,2,0,0,86,88,82,70,83,-60.86,48,10.0,27.0,-930.0
17.057,4,-2,-11,1,0,1,86,88,80,70,83,-60.91,48,4.0,22.0,-924.0
17.119,4,-2,-11,1,0,1,86,88,80,70,83,-60.91,48,4.0,22.0,-924.0
17.180,4,-2,-11,1,0,1,86,88,80,70,83,-60.91,48,4.0,22.0,-924.0
17.241,3,-2,-11,1,0,2,86,89,78,60,83,-60.87,48,7.0,27.0,-896.0
17.303,3,-2,-11,1,0,2,86,89,78,60,83,-60.87,48,7.0,27.0,-896.0
17.365,3,-2,-11,1,-1,3,86,89,75,60,83,-60.96,48,0.0,26.0,-919.0
17.428,3,-2,-11,1,-1,3,86,89,75,60,83,-60.96,48,0.0,26.0,-919.0
17.492,3,-2,-11,1,-1,3,86,89,71,60,83,-61.14,48,-5.0,-3.0,-954.0
17.556,3,-2,-11,1,-1,3,86,89,71,60,83,-61.14,48,-5.0,-3.0,-954.0
17.618,2,-1,-12,0,-1,4,86,89,62,50,83,-61.02,49,-10.0,2.0,-975.0
17.681,2,-1,-12,0,-1,4,86,89,62,50,83,-61.02,49,-10.0,2.0,-975.0
17.743,2,0,-13,0,-1,5,86,89,57,40,83,-61.15,49,-29.0,3.0,-973.0
17.806,1,0,-13,0,-1,5,86,89,52,40,83,-61.16,49,-33.0,-11.0,-1012.0
17.867,1,0,-13,0,-1,5,86,89,52,40,83,-61.16,49,-33.0,-11.0,-1012.0
17.930,0,1,-13,0,-1,5,86,89,47,30,83,-61.11,49,-14.0,6.0,-1007.0
17.991,0,0,-12,0,-1,5,86,89,42,30,83,-61.1,49,-15.0,10.0,-1005.0
18.054,0,0,-12,0,0,4,86,89,37,20,83,-61.34,49,-17.0,4.0,-1025.0
18.116,0,0,-12,0,0,4,86,89,37,20,83,-61.34,49,-17.0,4.0,-1025.0
18.178,0,0,-12,0,0,4,86,89,37,20,83,-61.34,49,-17.0,4.0,-1025.0
18.240,1,-1,-11,0,0,4,86,88,31,20,83,-61.45,49,-26.0,14.0,-1025.0
18.302,1,-1,-11,0,0,4,86,88,31,20,83,-61.45,49,-26.0,14.0,-1025.0
18.364,1,-1,-11,0,0,4,86,88,31,20,83,-61.45,49,-26.0,14.0,-1025.0
18.427,0,-1,-11,0,0,4,86,88,25,10,83,-61.45,49,-23.0,5.0,-1004.0
18.489,0,-1,-11,0,0,4,86,88,25,10,83,-61.45,49,-23.0,5.0,-1004.0
18.551,0,0,-11,0,0,4,86,88,17,0,83,-61.7,50,-9.0,11.0,-974.0
18.614,0,0,-11,0,0,4,86,88,17,0,83,-61.7,50,-9.0,11.0,-974.0
18.676,0,0,-11,0,0,4,86,88,17,0,83,-61.7,50,-9.0,11.0,-974.0
18.740,0,-1,-11,0,0,4,86,88,11,0,83,-62.05,50,-14.0,6.0,-1009.0
18.804,0,-1,-11,0,0,4,86,88,10,0,83,-62.41,50,-8.0,-2.0,-1031.0
18.867,0,-1,-11,0,0,4,86,88,10,0,83,-62.41,50,-8.0,-2.0,-1031.0
18.929,0,0,-11,0,0,3,86,88,10,0,83,-63.77,50,-27.0,0.0,-1035.0
18.992,0,0,-11,0,0,3,86,88,10,0,83,-63.77,50,-27.0,0.0,-1035.0
19.054,0,0,-11,0,0,3,86,88,10,0,83,-65.38,50,-16.0,12.0,-1072.0
19.116,-3,2,-13,-2,0,0,86,88,10,0,83,-63.39,50,14.0,0.0,-899.0
19.179,-4,0,-16,-2,0,0,85,88,10,0,83,-62.87,50,-117.0,5.0,-392.0
19.241,1,0,-16,-3,0,0,85,88,10,0,83,-62.37,50,-172.0,43.0,-886.0
19.303,1,0,-16,-3,0,0,85,88,10,0,83,-62.37,50,-172.0,43.0,-886.0
19.366,1,0,-16,-3,0,0,85,88,10,0,83,-62.12,50,0.0,-6.0,-999.0
19.428,1,0,-16,-3,0,0,85,88,10,0,83,-62.12,50,0.0,-6.0,-999.0
19.490,1,0,-16,-4,0,0,85,88,10,0,83,-62.01,50,0.0,-4.0,-1000.0
19.552,1,0,-16,-4,0,0,85,88,10,0,83,-61.9,50,1.0,-3.0,-1000.0
19.614,1,0,-16,-4,0,0,85,88,10,0,83,-61.9,50,1.0,-3.0,-1000.0
19.678,1,0,-16,-4,0,0,85,88,10,0,83,-61.73,50,-2.0,-1.0,-997.0
19.740,1,0,-16,-4,0,0,85,88,10,0,83,-61.75,50,6.0,-3.0,-1000.0
19.802,1,0,-16,-4,0,0,85,88,10,0,83,-61.75,50,6.0,-3.0,-1000.0
19.864,1,0,-16,-4,0,0,85,88,10,0,83,-61.75,50,6.0,-3.0,-1000.0
19.927,1,0,-16,-5,0,0,85,88,10,0,83,-61.74,50,-2.0,-3.0,-999.0
19.989,1,0,-16,-5,0,0,85,88,10,0,83,-61.73,50,0.0,-3.0,-1000.0
20.051,1,0,-16,-5,0,0,85,88,10,0,83,-61.68,50,1.0,-3.0,-996.0
20.112,1,0,-16,-5,0,0,85,88,10,0,83,-61.68,50,1.0,-3.0,-996.0
20.174,1,0,-16,-5,0,0,85,88,10,0,83,-61.68,50,1.0,-3.0,-996.0
20.237,1,0,-16,-5,0,0,85,87,10,0,83,-61.73,50,0.0,-5.0,-999.0
20.299,1,0,-16,0,0,0,85,87,10,0,83,-61.76,50,0.0,-3.0,-999.0
20.361,1,0,-16,0,0,0,85,87,10,0,83,-61.74,50,-1.0,-4.0,-999.0
20.424,1,0,-16,0,0,0,85,87,10,0,83,-61.74,50,-1.0,-4.0,-999.0
20.486,1,0,-16,0,0,0,85,87,10,0,83,-61.74,50,-1.0,-4.0,-999.0
20.549,1,0,-16,0,0,0,85,87,10,0,83,-61.78,50,0.0,-4.0,-998.0
20.611,1,0,-16,0,0,0,85,87,10,0,83,-61.75,50,0.0,-5.0,-997.0
20.673,1,0,-16,0,0,0,85,87,10,0,83,-61.75,50,0.0,-5.0,-997.0
20.736,1,0,-16,0,0,0,85,87,10,0,83,-61.72,50,0.0,-2.0,-997.0
20.797,1,0,-16,0,0,0,85,87,10,0,83,-61.75,50,0.0,-5.0,-999.0
20.861,1,0,-16,0,0,0,85,87,10,0,83,-61.75,50,0.0,-5.0,-999.0
20.923,1,0,-16,0,0,0,85,87,10,0,83,-61.7,50,0.0,-3.0,-1000.0
20.986,1,0,-16,0,0,0,85,87,10,0,83,-61.7,50,0.0,-3.0,-1000.0
21.049,1,0,-16,0,0,0,85,87,10,0,83,-61.69,50,0.0,-3.0,-998.0
21.110,1,0,-16,0,0,0,85,87,10,0,83,-61.67,50,0.0,-4.0,-999.0
21.173,1,0,-16,0,0,0,85,87,10,0,83,-61.74,50,1.0,-3.0,-999.0
21.235,1,0,-16,0,0,0,85,87,10,0,83,-61.74,50,1.0,-3.0,-999.0
21.299,1,0,-16,0,0,0,85,87,10,0,83,-61.74,50,1.0,-3.0,-999.0
21.361,0,0,-16,0,0,0,85,87,10,0,83,-61.7,50,0.0,-5.0,-998.0
21.424,0,0,-16,0,0,0,85,87,10,0,83,-61.7,50,0.0,-5.0,-998.0
21.484,0,0,-16,0,0,0,85,87,10,0,83,-61.7,50,0.0,-5.0,-998.0
21.546,0,0,-16,0,0,0,85,87,10,0,83,-61.7,50,1.0,-4.0,-1001.0
21.609,0,0,-16,0,0,0,85,87,10,0,83,-61.7,50,1.0,-4.0,-1001.0
21.673,0,0,-16,0,0,0,85,87,10,0,83,-61.7,50,1.0,-4.0,-1001.0
21.735,0,0,-16,0,0,0,85,87,10,0,83,-61.73,50,0.0,-4.0,-1000.0
21.797,0,0,-16,0,0,0,85,87,10,0,83,-61.73,50,0.0,-4.0,-1000.0
21.860,0,0,-16,0,0,0,85,87,10,0,83,-61.73,50,0.0,-4.0,-1000.0
21.922,0,0,-16,0,0,0,85,87,10,0,83,-61.73,50,0.0,-4.0,-1000.0
21.984,0,0,-16,0,0,0,85,87,10,0,83,-61.74,50,0.0,-3.0,-1000.0
22.045,0,0,-16,0,0,0,85,87,10,0,83,-61.78,50,0.0,-3.0,-1000.0
22.108,0,0,-16,0,0,0,85,87,10,0,83,-61.78,50,0.0,-3.0,-1000.0
22.170,0,0,-16,0,0,0,85,87,10,0,83,-61.78,50,0.0,-3.0,-1000.0
22.233,0,0,-16,0,0,0,85,87,10,0,83,-61.81,50,0.0,-2.0,-1000.0
22.295,0,0,-16,0,0,0,85,87,10,0,83,-61.78,50,0.0,-5.0,-1004.0
22.359,0,0,-16,0,0,0,85,87,10,0,83,-61.78,50,0.0,-5.0,-1004.0
22.421,0,0,-16,0,0,0,85,87,10,0,83,-61.71,50,0.0,-4.0,-1001.0
22.484,0,0,-16,0,0,0,85,87,10,0,83,-61.72,50,0.0,-4.0,-1002.0
22.546,0,0,-16,0,0,0,85,87,10,0,83,-61.72,50,0.0,-4.0,-1002.0
22.609,0,0,-16,0,0,0,85,87,10,0,83,-61.72,50,0.0,-4.0,-1002.0
22.672,0,0,-16,0,0,0,85,87,10,0,83,-61.78,50,0.0,-4.0,-999.0
22.734,0,0,-16,0,0,0,85,87,10,0,83,-61.78,50,0.0,-4.0,-999.0
22.797,0,0,-16,0,0,0,85,87,10,0,83,-61.78,50,0.0,-4.0,-999.0
22.861,0,0,-16,0,0,0,85,87,10,0,83,-61.77,50,0.0,-4.0,-997.0
22.923,0,0,-16,0,0,0,85,87,10,0,83,-61.77,50,0.0,-4.0,-997.0
22.986,0,0,-16,0,0,0,85,87,10,0,83,-61.74,50,0.0,-5.0,-1000.0
23.049,0,0,-16,0,0,0,85,87,10,0,83,-61.74,50,0.0,-5.0,-1000.0
23.111,0,0,-16,0,0,0,85,87,10,0,83,-61.75,50,-1.0,-4.0,-999.0
23.174,0,0,-16,0,0,0,85,87,10,0,83,-61.75,50,0.0,-4.0,-998.0
23.237,0,0,-16,0,0,0,85,87,10,0,83,-61.75,50,0.0,-4.0,-998.0
23.298,0,0,-16,0,0,0,85,87,10,0,83,-61.81,50,0.0,-4.0,-1001.0
23.360,0,0,-16,0,0,0,85,87,10,0,83,-61.81,50,0.0,-4.0,-1001.0
23.422,0,0,-16,0,0,0,85,87,10,0,83,-61.81,50,0.0,-4.0,-1001.0
23.484,0,0,-16,0,0,0,85,87,10,0,83,-61.77,50,0.0,-4.0,-999.0
23.546,0,0,-16,0,0,0,85,87,10,0,83,-61.77,50,0.0,-4.0,-999.0
23.608,0,0,-16,0,0,0,85,87,10,0,83,-61.78,50,1.0,-5.0,-1000.0
23.671,0,0,-16,0,0,0,85,87,10,0,83,-61.69,50,0.0,-4.0,-999.0
23.732,0,0,-16,0,0,0,85,87,10,0,83,-61.69,50,0.0,-4.0,-999.0
23.794,0,0,-16,0,0,0,85,87,10,0,83,-61.79,50,0.0,-3.0,-1002.0
23.857,0,0,-16,0,0,0,85,87,10,0,83,-61.79,50,0.0,-3.0,-1002.0
23.919,0,0,-16,0,0,0,85,87,10,0,83,-61.72,50,0.0,-3.0,-999.0
23.982,0,0,-16,0,0,0,85,87,10,0,83,-61.75,50,0.0,-3.0,-1001.0
24.045,0,0,-16,0,0,0,85,87,10,0,83,-61.75,50,0.0,-3.0,-1001.0
24.109,0,0,-16,0,0,0,85,87,10,0,83,-61.78,50,0.0,-2.0,-1000.0
24.172,0,0,-16,0,0,0,85,87,10,0,83,-61.78,50,0.0,-2.0,-1000.0
24.234,0,0,-16,0,0,0,85,88,10,0,83,-61.76,50,-1.0,-3.0,-1001.0
24.297,0,0,-16,0,0,0,85,88,10,0,83,-61.72,50,0.0,-4.0,-999.0
24.359,0,0,-16,0,0,0,85,88,10,0,83,-61.72,50,0.0,-4.0,-999.0
24.423,0,0,-16,0,0,0,85,88,10,0,83,-61.83,50,0.0,-3.0,-998.0
24.483,0,0,-16,0,0,0,85,88,10,0,83,-61.78,50,0.0,-5.0,-1000.0
24.546,0,0,-16,0,0,0,85,88,10,0,83,-61.78,50,0.0,-5.0,-1000.0
24.608,0,0,-16,0,0,0,85,88,10,0,83,-61.83,50,-1.0,-2.0,-1002.0
24.671,0,0,-16,0,0,0,85,88,10,0,83,-61.83,50,-1.0,-2.0,-1002.0
24.734,0,0,-16,0,0,0,85,88,10,0,83,-61.75,50,-1.0,-5.0,-1005.0
24.795,0,0,-16,0,0,0,85,88,10,0,83,-61.76,50,0.0,-4.0,-1001.0
24.858,0,0,-16,0,0,0,85,88,10,0,83,-61.76,50,0.0,-4.0,-1001.0
24.920,0,0,-16,0,0,0,85,88,10,0,83,-61.84,50,0.0,-3.0,-1001.0
24.983,0,0,-16,0,0,0,85,88,10,0,83,-61.84,50,0.0,-5.0,-1001.0
25.045,0,0,-16,0,0,0,85,88,10,0,83,-61.86,50,0.0,-3.0,-998.0
25.107,0,0,-16,0,0,0,85,88,10,0,83,-61.86,50,0.0,-3.0,-998.0
25.169,0,0,-16,0,0,0,85,88,10,0,83,-61.86,50,0.0,-3.0,-998.0
25.232,0,0,-16,0,0,0,85,88,10,0,83,-61.81,50,0.0,-3.0,-1002.0
25.294,0,0,-16,0,0,0,85,88,10,0,83,-61.77,50,0.0,-4.0,-1000.0
25.358,0,0,-16,0,0,0,85,88,10,0,83,-61.77,50,0.0,-4.0,-1000.0
25.421,0,0,-16,0,0,0,85,88,10,0,83,-61.79,50,1.0,-4.0,-1001.0
25.483,0,0,-16,0,0,0,85,88,10,0,83,-61.78,50,0.0,-3.0,-1000.0
25.545,0,0,-16,0,0,0,85,88,10,0,83,-61.78,50,0.0,-3.0,-1000.0
25.608,0,0,-16,0,0,0,85,88,10,0,83,-61.77,50,2.0,-4.0,-1001.0
25.671,0,0,-16,0,0,0,85,88,10,0,83,-61.77,50,2.0,-4.0,-1001.0
25.732,0,0,-16,0,0,0,85,88,10,0,83,-61.82,50,0.0,-4.0,-999.0
25.794,0,0,-16,0,0,0,85,88,10,0,83,-61.75,50,0.0,-3.0,-1001.0
25.858,0,0,-16,0,0,0,85,88,10,0,83,-61.75,50,0.0,-3.0,-1001.0
25.921,0,0,-16,0,0,0,85,88,10,0,83,-61.73,50,1.0,-3.0,-1001.0
25.985,0,0,-16,0,0,0,85,88,10,0,83,-61.86,50,0.0,-3.0,-1002.0
26.048,0,0,-16,0,0,0,85,88,10,0,83,-61.86,50,0.0,-3.0,-1002.0
26.110,0,0,-16,0,0,0,85,88,10,0,83,-61.76,50,0.0,-3.0,-1000.0
26.172,0,0,-16,0,0,0,85,88,10,0,83,-61.76,50,0.0,-3.0,-1000.0
26.235,0,0,-16,0,0,0,85,88,10,0,83,-61.72,50,0.0,-3.0,-1001.0
26.296,0,0,-16,0,0,0,85,88,10,0,83,-61.73,50,0.0,-5.0,-999.0
26.357,0,0,-16,0,0,0,85,88,10,0,83,-61.73,50,0.0,-5.0,-999.0
26.419,0,0,-16,0,0,0,85,88,10,0,83,-61.73,50,0.0,-5.0,-999.0
26.480,0,0,-16,0,0,0,85,88,10,0,83,-61.69,50,0.0,-4.0,-997.0
26.543,0,0,-16,0,0,0,85,88,10,0,83,-61.69,50,0.0,-4.0,-997.0
26.605,0,0,-16,0,0,0,85,88,10,0,83,-61.68,50,0.0,-4.0,-1001.0
26.667,0,0,-16,0,0,0,85,88,10,0,83,-61.68,50,0.0,-4.0,-1001.0
26.728,0,0,-16,0,0,0,85,88,10,0,83,-61.68,50,0.0,-4.0,-1001.0
26.789,0,0,-16,0,0,0,85,88,10,0,83,-61.7,50,0.0,-4.0,-1001.0
26.852,0,0,-16,0,0,0,85,88,10,0,83,-61.7,50,0.0,-4.0,-1001.0
26.914,0,0,-16,0,0,0,85,88,10,0,83,-61.75,50,0.0,-5.0,-1000.0
26.976,0,0,-16,0,0,0,85,88,10,0,83,-61.75,50,0.0,-5.0,-1000.0
27.039,0,0,-16,0,0,0,85,88,10,0,83,-61.82,50,0.0,-5.0,-1000.0
27.103,0,0,-16,0,0,0,85,88,10,0,83,-61.68,50,0.0,-5.0,-1002.0
27.167,0,0,-16,0,0,0,85,88,10,0,83,-61.68,50,0.0,-5.0,-1002.0
27.229,0,0,-16,0,0,0,85,88,10,0,83,-61.68,50,0.0,-5.0,-1002.0
27.292,0,0,-16,0,0,0,86,88,10,0,83,-61.74,50,0.0,-5.0,-999.0
27.356,0,0,-16,0,0,0,86,88,10,0,83,-61.74,50,0.0,-5.0,-999.0
27.418,0,0,-16,0,0,0,86,88,10,0,83,-61.74,50,0.0,-5.0,-999.0
27.480,0,0,-16,0,0,0,86,88,10,0,83,-61.76,50,0.0,-5.0,-999.0
27.543,0,0,-16,0,0,0,86,88,10,0,83,-61.74,50,0.0,-5.0,-998.0
27.605,0,0,-16,0,0,0,86,88,10,0,83,-61.78,50,-2.0,-4.0,-999.0
27.666,0,0,-16,0,0,0,86,88,10,0,83,-61.78,50,-2.0,-4.0,-999.0
27.728,0,0,-16,0,0,0,86,88,10,0,83,-61.76,50,-1.0,-4.0,-999.0
27.790,0,0,-16,0,0,0,86,88,10,0,83,-61.76,50,-1.0,-4.0,-999.0
27.852,0,0,-16,0,0,0,86,88,10,0,83,-61.72,50,-1.0,-5.0,-1000.0
27.916,0,0,-16,0,0,0,86,88,10,0,83,-61.72,50,-1.0,-5.0,-1000.0
27.979,0,0,-16,0,0,0,86,88,10,0,83,-61.72,50,0.0,-5.0,-999.0
28.041,0,0,-16,0,0,0,86,88,10,0,83,-61.74,50,0.0,-5.0,-1000.0
28.102,0,0,-16,0,0,0,86,88,10,0,83,-61.74,50,0.0,-5.0,-1000.0
28.163,0,0,-16,0,0,0,86,88,10,0,83,-61.76,50,0.0,-4.0,-1000.0
28.227,0,0,-16,0,0,0,86,88,10,0,83,-61.76,50,0.0,-4.0,-1000.0
28.290,0,0,-16,0,0,0,85,88,10,0,83,-61.77,50,0.0,-5.0,-1000.0
28.353,0,0,-16,0,0,0,85,88,10,0,83,-61.82,50,0.0,-5.0,-1001.0
28.416,0,0,-16,0,0,0,85,88,10,0,83,-61.82,50,0.0,-5.0,-1001.0
28.478,0,0,-16,0,0,0,85,88,10,0,83,-61.82,50,0.0,-5.0,-1001.0
28.541,0,0,-16,0,0,0,85,88,10,0,83,-61.79,50,0.0,-4.0,-1001.0
28.603,0,0,-16,0,0,0,85,88,10,0,83,-61.77,50,0.0,-3.0,-1001.0
28.665,0,0,-16,0,0,0,85,88,10,0,83,-61.77,50,0.0,-3.0,-1001.0
28.727,0,0,-16,0,0,0,85,88,10,0,83,-61.76,50,0.0,-5.0,-999.0
28.789,0,0,-16,0,0,0,85,88,10,0,83,-61.77,50,0.0,-4.0,-997.0
28.853,0,0,-16,0,0,0,85,88,10,0,83,-61.77,50,0.0,-4.0,-997.0
28.916,0,0,-16,0,0,0,85,88,10,0,83,-61.81,50,0.0,-4.0,-999.0
28.978,0,0,-16,0,0,0,85,88,10,0,83,-61.81,50,0.0,-4.0,-1000.0
29.039,0,0,-16,0,0,0,85,88,10,0,83,-61.81,50,0.0,-4.0,-1000.0
29.101,0,0,-16,0,0,0,85,88,10,0,83,-61.74,50,0.0,-3.0,-1001.0
29.165,0,0,-16,0,0,0,85,88,10,0,83,-61.74,50,0.0,-3.0,-1001.0
29.226,0,0,-16,0,0,0,86,88,10,0,83,-61.7,50,1.0,-4.0,-1003.0
29.287,0,0,-16,0,0,0,86,88,10,0,83,-61.75,50,0.0,-3.0,-999.0
29.349,0,0,-16,0,0,0,86,88,10,0,83,-61.75,50,0.0,-3.0,-999.0
29.410,0,0,-16,0,0,0,86,88,10,0,83,-61.75,50,0.0,-5.0,-1001.0
29.474,0,0,-16,0,0,0,86,88,10,0,83,-61.75,50,0.0,-5.0,-1001.0
29.537,0,0,-16,0,0,0,86,88,10,0,83,-61.74,50,0.0,-4.0,-999.0
29.600,0,0,-16,0,0,0,86,88,10,0,83,-61.71,50,0.0,-3.0,-1001.0
29.662,0,0,-16,0,0,0,86,88,10,0,83,-61.71,50,0.0,-3.0,-1001.0
29.724,0,0,-16,0,0,0,86,88,10,0,83,-61.7,50,1.0,-2.0,-999.0
29.786,0,0,-16,0,0,0,86,88,10,0,83,-61.7,50,1.0,-2.0,-999.0
29.848,0,0,-16,0,0,0,86,88,10,0,83,-61.75,50,-1.0,-5.0,-1001.0
29.910,0,0,-16,0,0,0,86,88,10,0,83,-61.75,50,-1.0,-5.0,-1001.0
29.973,0,0,-16,0,0,0,86,88,10,0,83,-61.75,50,-1.0,-5.0,-1001.0
